[
  {
    "shop": "Coop",
    "name": "Coop Uznach Linthpark",
    "address": "",
    "city": "Uznach",
    "plz": "8730",
    "lat": 47.2251539,
    "lng": 8.9698681,
    "phone": "",
    "hours": "",
    "id": 1
  },
  {
    "shop": "Coop",
    "name": "Coop Zürich Bahnhofbrücke 1",
    "address": "Bahnhofbrücke 1",
    "city": "Zürich",
    "plz": "8001",
    "lat": 47.3767316,
    "lng": 8.5421608,
    "phone": "",
    "hours": "Mo–Sa 06:00-22:00",
    "id": 2
  },
  {
    "shop": "Coop",
    "name": "Coop Zürich Höngg",
    "address": "Am Wasser 146",
    "city": "Zürich",
    "plz": "8049",
    "lat": 47.3995257,
    "lng": 8.4973287,
    "phone": "",
    "hours": "Mo-Su 06:00-23:00",
    "id": 3
  },
  {
    "shop": "Coop",
    "name": "Coop Zürich Wollishofen",
    "address": "Alte Kalchbühlstrasse 15",
    "city": "Zürich",
    "plz": "8038",
    "lat": 47.3400698,
    "lng": 8.5305461,
    "phone": "",
    "hours": "Mo–Sa 07:30-21:00; PH off",
    "id": 4
  },
  {
    "shop": "Coop",
    "name": "Coop",
    "address": "",
    "city": "",
    "plz": "",
    "lat": 47.4487722,
    "lng": 8.2150751,
    "phone": "",
    "hours": "",
    "id": 5
  },
  {
    "shop": "Coop",
    "name": "Coop Zürich St. Annahof",
    "address": "Bahnhofstrasse 57",
    "city": "Zürich",
    "plz": "8001",
    "lat": 47.3729704,
    "lng": 8.5376718,
    "phone": "",
    "hours": "Mo–Sa 09:00-20:00",
    "id": 6
  },
  {
    "shop": "Coop",
    "name": "Coop Stäfa",
    "address": "Kronenstrasse 4-6",
    "city": "Stäfa",
    "plz": "8712",
    "lat": 47.241531,
    "lng": 8.7245301,
    "phone": "",
    "hours": "Mo–Sa 07:30-20:00",
    "id": 7
  },
  {
    "shop": "Coop",
    "name": "Coop",
    "address": "",
    "city": "",
    "plz": "",
    "lat": 47.3816844,
    "lng": 8.2389181,
    "phone": "",
    "hours": "",
    "id": 8
  },
  {
    "shop": "Coop",
    "name": "Coop",
    "address": "Bäreggstrasse 10",
    "city": "",
    "plz": "",
    "lat": 47.2207301,
    "lng": 7.7813527,
    "phone": "",
    "hours": "Mo-Th 07:30-19:00; Fr 07:30-21:00; Sa 07:30-17:00; Su off; PH off",
    "id": 9
  },
  {
    "shop": "Coop",
    "name": "Coop Langenthal",
    "address": "Bützbergstrasse 103",
    "city": "Langenthal",
    "plz": "4900",
    "lat": 47.2172766,
    "lng": 7.7687807,
    "phone": "",
    "hours": "",
    "id": 10
  },
  {
    "shop": "Coop",
    "name": "Coop Langenthal Tell",
    "address": "",
    "city": "",
    "plz": "",
    "lat": 47.2124233,
    "lng": 7.7906102,
    "phone": "",
    "hours": "Mo-Th 08:00-20:00; Sa 07:30-17:00; Su off; PH off; Fr 08:00-21:00",
    "id": 11
  },
  {
    "shop": "Coop",
    "name": "Coop Zürich Hönggermarkt",
    "address": "Regensdorferstrasse 9",
    "city": "Zürich",
    "plz": "8049",
    "lat": 47.4025264,
    "lng": 8.4987145,
    "phone": "",
    "hours": "Mo–Sa 08:00-20:00; Su,PH off",
    "id": 12
  },
  {
    "shop": "Coop",
    "name": "Coop Bottmingen",
    "address": "",
    "city": "",
    "plz": "",
    "lat": 47.5265972,
    "lng": 7.5725989,
    "phone": "",
    "hours": "Mo–Sa 07:30-20:00",
    "id": 13
  },
  {
    "shop": "Coop",
    "name": "Coop",
    "address": "",
    "city": "",
    "plz": "",
    "lat": 47.4645599,
    "lng": 9.0454258,
    "phone": "",
    "hours": "Mo–Fr 08:00-19:00, Tu 08:00-20:00, Sa 08:00-17:00",
    "id": 14
  },
  {
    "shop": "Coop",
    "name": "Coop Thurmarkt",
    "address": "",
    "city": "",
    "plz": "",
    "lat": 47.5667319,
    "lng": 9.0970483,
    "phone": "",
    "hours": "Mo–Sa 08:00-20:00; Su,PH closed",
    "id": 15
  },
  {
    "shop": "Coop",
    "name": "Coop Horgen Leuehuus",
    "address": "",
    "city": "",
    "plz": "",
    "lat": 47.2590912,
    "lng": 8.5987196,
    "phone": "",
    "hours": "",
    "id": 16
  },
  {
    "shop": "Coop",
    "name": "Coop Horgen Waldegg",
    "address": "",
    "city": "",
    "plz": "",
    "lat": 47.245172,
    "lng": 8.6081092,
    "phone": "",
    "hours": "",
    "id": 17
  },
  {
    "shop": "Coop",
    "name": "Coop",
    "address": "",
    "city": "",
    "plz": "",
    "lat": 46.5557428,
    "lng": 7.3736505,
    "phone": "",
    "hours": "Mo–Fr 08:00-19:00; Sa 08:00-17:00",
    "id": 18
  },
  {
    "shop": "Coop",
    "name": "Coop Wallisellen",
    "address": "Bahnhofplatz 2",
    "city": "Wallisellen",
    "plz": "8304",
    "lat": 47.4129519,
    "lng": 8.5927658,
    "phone": "",
    "hours": "Mo–Sa 06:30-21:00",
    "id": 19
  },
  {
    "shop": "Coop",
    "name": "Coop Dietlikon Center",
    "address": "Industriestrasse 28",
    "city": "Dietlikon",
    "plz": "8305",
    "lat": 47.4133066,
    "lng": 8.6189038,
    "phone": "",
    "hours": "Mo–Fr 09:00-21:00, Sa 08:00-21:00; PH off",
    "id": 20
  },
  {
    "shop": "Coop",
    "name": "Coop Zürich Fluntern",
    "address": "Zürichbergstrasse 75",
    "city": "Zürich",
    "plz": "8044",
    "lat": 47.376417,
    "lng": 8.5595945,
    "phone": "",
    "hours": "Mo–Fr 07:00-21:00; Sa 07:30-20:00",
    "id": 21
  },
  {
    "shop": "Coop",
    "name": "Coop Zürich Albisriederplatz",
    "address": "Badenerstrasse 333",
    "city": "Zürich",
    "plz": "8003",
    "lat": 47.3777162,
    "lng": 8.5112192,
    "phone": "",
    "hours": "Mo–Sa 07:00-22:00; PH off",
    "id": 22
  },
  {
    "shop": "Coop",
    "name": "Coop Zürich Altstetten am Bahnhof",
    "address": "Hohlstrasse 560",
    "city": "Zürich",
    "plz": "8048",
    "lat": 47.3909762,
    "lng": 8.4892581,
    "phone": "",
    "hours": "Mo-Su 05:30-24:00",
    "id": 23
  },
  {
    "shop": "Coop",
    "name": "Coop Schötz Luzernerstrasse 27",
    "address": "Luzernerstrasse 27",
    "city": "Schötz",
    "plz": "6247",
    "lat": 47.1688761,
    "lng": 7.9926369,
    "phone": "+41 41 984 11 60",
    "hours": "Mo 08:00-17:00; Tu-Th 08:00-19:00; Fr 08:00-20:00; Sa 07:30-17:00; Su,PH off",
    "id": 24
  },
  {
    "shop": "Coop",
    "name": "Coop Zürich Maagplatz",
    "address": "Maagplatz 1",
    "city": "Zürich",
    "plz": "8005",
    "lat": 47.3858089,
    "lng": 8.5165739,
    "phone": "",
    "hours": "Mo–Fr 06:00-20:00",
    "id": 25
  },
  {
    "shop": "Coop",
    "name": "Coop Zürich Manessehof",
    "address": "Uetlibergstrasse 20",
    "city": "Zürich",
    "plz": "8045",
    "lat": 47.3648716,
    "lng": 8.521006,
    "phone": "",
    "hours": "Mo–Sa 07:30-21:00",
    "id": 26
  },
  {
    "shop": "Coop",
    "name": "Coop",
    "address": "",
    "city": "",
    "plz": "",
    "lat": 47.5511761,
    "lng": 7.5804752,
    "phone": "",
    "hours": "Mo–Fr 07:30-20:00; Sa 07:30-18:00",
    "id": 27
  },
  {
    "shop": "Coop",
    "name": "Coop Bellevue Food",
    "address": "Theaterstrasse 18",
    "city": "Zürich",
    "plz": "8001",
    "lat": 47.36736,
    "lng": 8.5461737,
    "phone": "",
    "hours": "Mo–Fr 08:00-20:00; Sa 08:00-19:00",
    "id": 28
  },
  {
    "shop": "Coop",
    "name": "Coop Uster Bahnhof",
    "address": "",
    "city": "",
    "plz": "",
    "lat": 47.3516553,
    "lng": 8.7161267,
    "phone": "+41 44 943 15 80",
    "hours": "Mo–Sa 06:00-22:00; Su 07:00-22:00",
    "id": 29
  },
  {
    "shop": "Coop",
    "name": "Coop Morges Rue des Fossés 4",
    "address": "Rue des Fossés 4",
    "city": "Morges",
    "plz": "1110",
    "lat": 46.5104626,
    "lng": 6.4978122,
    "phone": "+41 21 804 67 40",
    "hours": "",
    "id": 30
  },
  {
    "shop": "Coop",
    "name": "Coop Zürich Seefeld",
    "address": "Seefeldstrasse 123",
    "city": "Zürich",
    "plz": "8008",
    "lat": 47.3579403,
    "lng": 8.5546463,
    "phone": "",
    "hours": "Mo–Sa 07:00-22:00",
    "id": 31
  },
  {
    "shop": "Coop",
    "name": "Coop Zürich Stadelhofen",
    "address": "Stadelhoferstrasse 10",
    "city": "Zürich",
    "plz": "8001",
    "lat": 47.3667726,
    "lng": 8.5480794,
    "phone": "+41 44 250 47 80",
    "hours": "Mo–Sa 06:00-22:00; Su 07:00-22:00",
    "id": 32
  },
  {
    "shop": "Coop",
    "name": "Coop Zürich Kreuzplatz",
    "address": "Forchstrasse 4",
    "city": "Zürich",
    "plz": "8008",
    "lat": 47.3643,
    "lng": 8.5551291,
    "phone": "",
    "hours": "Mo–Sa 07:30-21:00",
    "id": 33
  },
  {
    "shop": "Coop",
    "name": "Coop Lutry Route de l'Ancienne Ciblerie 2",
    "address": "Route de l'Ancienne Ciblerie 2",
    "city": "Lutry",
    "plz": "1095",
    "lat": 46.5059315,
    "lng": 6.6885514,
    "phone": "",
    "hours": "Mo-Th 8:00-19:00;Fr 8:00-20:00;Sa 8:00-18:00",
    "id": 34
  },
  {
    "shop": "Coop",
    "name": "Coop",
    "address": "",
    "city": "",
    "plz": "",
    "lat": 47.4935876,
    "lng": 7.5934065,
    "phone": "",
    "hours": "Mo–Fr 08:00-20:00; Sa 07:30-20:00",
    "id": 35
  },
  {
    "shop": "Coop",
    "name": "Coop",
    "address": "",
    "city": "",
    "plz": "",
    "lat": 47.5466265,
    "lng": 7.5649976,
    "phone": "",
    "hours": "Mo–Fr 07:30-20:00; Sa 07:30-18:00",
    "id": 36
  },
  {
    "shop": "Coop",
    "name": "Coop Zürich Wehntalerstrasse",
    "address": "Wehntalerstrasse 549",
    "city": "Zürich",
    "plz": "8046",
    "lat": 47.4188884,
    "lng": 8.5056989,
    "phone": "",
    "hours": "Mo–Sa 08:00-20:00",
    "id": 37
  },
  {
    "shop": "Coop",
    "name": "Coop Siebnen",
    "address": "Stockbergstrasse 1",
    "city": "Siebnen",
    "plz": "8854",
    "lat": 47.1755809,
    "lng": 8.9022254,
    "phone": "",
    "hours": "Mo–Fr 08:00-20:00; Sa 07:30-20:00",
    "id": 38
  },
  {
    "shop": "Coop",
    "name": "Coop Schaffhausen Gruben",
    "address": "",
    "city": "",
    "plz": "",
    "lat": 47.7027188,
    "lng": 8.6457825,
    "phone": "",
    "hours": "Mo–Fr 08:00-19:00; Sa 08:00-17:00",
    "id": 39
  },
  {
    "shop": "Coop",
    "name": "Coop",
    "address": "",
    "city": "",
    "plz": "",
    "lat": 47.4986607,
    "lng": 8.7975435,
    "phone": "",
    "hours": "",
    "id": 40
  },
  {
    "shop": "Coop",
    "name": "Coop Bern Zähringerstrasse",
    "address": "",
    "city": "",
    "plz": "",
    "lat": 46.956452,
    "lng": 7.431997,
    "phone": "",
    "hours": "Mo–Fr 08:00-19:00; Sa 08:00-17:00; Su,PH closed",
    "id": 41
  },
  {
    "shop": "Coop",
    "name": "Coop",
    "address": "",
    "city": "",
    "plz": "",
    "lat": 47.1132743,
    "lng": 7.8533032,
    "phone": "",
    "hours": "",
    "id": 42
  },
  {
    "shop": "Coop",
    "name": "Coop Richterswil Obermatt",
    "address": "Obermattstrasse 7",
    "city": "Richterswil",
    "plz": "8805",
    "lat": 47.2037134,
    "lng": 8.6838242,
    "phone": "",
    "hours": "",
    "id": 43
  },
  {
    "shop": "Coop",
    "name": "Coop Richterswil Poststrasse",
    "address": "Poststrasse 14b",
    "city": "Richterswil",
    "plz": "8805",
    "lat": 47.2084598,
    "lng": 8.7057527,
    "phone": "+41 44 245 17 80",
    "hours": "Mo–Sa 07:00-20:00",
    "id": 44
  },
  {
    "shop": "Coop",
    "name": "Coop Sarnen",
    "address": "Marktstrasse 32",
    "city": "Sarnen",
    "plz": "6060",
    "lat": 46.8974507,
    "lng": 8.2511311,
    "phone": "",
    "hours": "",
    "id": 45
  },
  {
    "shop": "Coop",
    "name": "Coop",
    "address": "",
    "city": "",
    "plz": "",
    "lat": 46.5160056,
    "lng": 6.6137254,
    "phone": "",
    "hours": "Mo–Fr 07:30-19:00; Sa 07:30-18:00",
    "id": 46
  },
  {
    "shop": "Coop",
    "name": "Coop Pronto",
    "address": "",
    "city": "",
    "plz": "",
    "lat": 46.7550411,
    "lng": 7.6306619,
    "phone": "",
    "hours": "Mo-Th 06:00-20:00; Fr 06:00-22:00; Sa 06:00-17:00; Su 06:00-18:00",
    "id": 47
  },
  {
    "shop": "Coop",
    "name": "Coop Zürich Scheffelstrasse",
    "address": "Scheffelstrasse 12",
    "city": "Zürich",
    "plz": "8037",
    "lat": 47.3936485,
    "lng": 8.5295435,
    "phone": "",
    "hours": "Mo–Sa 07:00-21:00",
    "id": 48
  },
  {
    "shop": "Coop",
    "name": "Coop Zürich Wipkingerbrücke",
    "address": "Röschibachstrasse 22",
    "city": "Zürich",
    "plz": "8037",
    "lat": 47.392539,
    "lng": 8.5245566,
    "phone": "",
    "hours": "Mo–Sa 07:30-20:00",
    "id": 49
  },
  {
    "shop": "Coop",
    "name": "Coop",
    "address": "",
    "city": "",
    "plz": "",
    "lat": 46.6585969,
    "lng": 6.5112877,
    "phone": "",
    "hours": "",
    "id": 50
  },
  {
    "shop": "Coop",
    "name": "Coop Pfäffikon SZ Etzelstrasse",
    "address": "Etzelstrasse 14",
    "city": "",
    "plz": "",
    "lat": 47.2005652,
    "lng": 8.7783749,
    "phone": "",
    "hours": "Mo–Sa 07:00-20:00",
    "id": 51
  },
  {
    "shop": "Coop",
    "name": "Coop",
    "address": "",
    "city": "",
    "plz": "",
    "lat": 46.9230886,
    "lng": 7.4157605,
    "phone": "",
    "hours": "Mo-Th 08:00-19:00; Fr 08:00-21:00; Sa 07:30-17:00",
    "id": 52
  },
  {
    "shop": "Coop",
    "name": "Coop",
    "address": "",
    "city": "",
    "plz": "3823",
    "lat": 46.6050145,
    "lng": 7.922093,
    "phone": "",
    "hours": "Mo-Su 08:00-18:30",
    "id": 53
  },
  {
    "shop": "Coop",
    "name": "Coop Kandersteg",
    "address": "",
    "city": "Kandersteg",
    "plz": "3718",
    "lat": 46.4947362,
    "lng": 7.6735831,
    "phone": "",
    "hours": "Mo–Fr 08:00-18:30; Sa 08:00-18:30; Su 14:00-18:30",
    "id": 54
  },
  {
    "shop": "Coop",
    "name": "Coop",
    "address": "Emmerstrasse 12",
    "city": "",
    "plz": "8192",
    "lat": 47.5568506,
    "lng": 8.5028961,
    "phone": "+41 44 206 91 40",
    "hours": "Mo–Fr 07:30-20:00; Sa 10:00-22:00,07:30-20:00",
    "id": 55
  },
  {
    "shop": "Coop",
    "name": "Coop Bel Air",
    "address": "Rue d'Orbe 1",
    "city": "Yverdon-les-Bains",
    "plz": "1400",
    "lat": 46.7800543,
    "lng": 6.6357906,
    "phone": "+41 24 423 51 70",
    "hours": "Mo–Fr 08:00-18:30; Sa 08:00-18:00",
    "id": 56
  },
  {
    "shop": "Coop",
    "name": "Coop Schwyz",
    "address": "Oberer Steisteg 2",
    "city": "Schwyz",
    "plz": "6430",
    "lat": 47.0202366,
    "lng": 8.651667,
    "phone": "",
    "hours": "Mo–Fr 07:30-19:00; Sa 07:30-18:00",
    "id": 57
  },
  {
    "shop": "Coop",
    "name": "Coop",
    "address": "",
    "city": "",
    "plz": "",
    "lat": 46.7815587,
    "lng": 6.6403202,
    "phone": "",
    "hours": "Mo–Sa 05:00-23:00; Su 06:00-23:00",
    "id": 58
  },
  {
    "shop": "Coop",
    "name": "Coop Rheinfelden",
    "address": "Zürcherstrasse 49",
    "city": "Rheinfelden",
    "plz": "4310",
    "lat": 47.5520183,
    "lng": 7.8033891,
    "phone": "",
    "hours": "06:00-23:00",
    "id": 59
  },
  {
    "shop": "Coop",
    "name": "Coop Oberrieden",
    "address": "",
    "city": "",
    "plz": "",
    "lat": 47.2781272,
    "lng": 8.5755264,
    "phone": "",
    "hours": "",
    "id": 60
  },
  {
    "shop": "Coop",
    "name": "Coop",
    "address": "",
    "city": "",
    "plz": "",
    "lat": 47.5062355,
    "lng": 7.600033,
    "phone": "",
    "hours": "Mo–Fr 08:00-19:00; Sa 07:30-17:00",
    "id": 61
  },
  {
    "shop": "Coop",
    "name": "Coop Langnau am Albis Höflistrasse 7",
    "address": "Höflistrasse 7",
    "city": "Langnau am Albis",
    "plz": "8135",
    "lat": 47.2892115,
    "lng": 8.539786,
    "phone": "+41 44 713 50 90",
    "hours": "Mo–Sa 07:30-20:00",
    "id": 62
  },
  {
    "shop": "Coop",
    "name": "Coop Thalwil",
    "address": "Florastrasse 1",
    "city": "Thalwil",
    "plz": "8800",
    "lat": 47.2966747,
    "lng": 8.5619352,
    "phone": "+41 44 722 64 10",
    "hours": "Mo–Sa 07:30-20:00",
    "id": 63
  },
  {
    "shop": "Coop",
    "name": "Coop Grindelwald Dorfstrasse 101",
    "address": "Dorfstrasse 101",
    "city": "Grindelwald",
    "plz": "3818",
    "lat": 46.6242026,
    "lng": 8.0352078,
    "phone": "+41 33 225 39 40",
    "hours": "Mo-Su 08:00-19:00",
    "id": 64
  },
  {
    "shop": "Coop",
    "name": "Coop",
    "address": "",
    "city": "",
    "plz": "",
    "lat": 46.3151473,
    "lng": 7.9867062,
    "phone": "",
    "hours": "",
    "id": 65
  },
  {
    "shop": "Coop",
    "name": "Coop Münchwilen TG Frauenfelderstrasse 4",
    "address": "Frauenfelderstrasse 4",
    "city": "Münchwilen TG",
    "plz": "9542",
    "lat": 47.4793014,
    "lng": 8.9954388,
    "phone": "+41 71 969 47 50",
    "hours": "Mo–Fr 07:00-20:00; Sa 07:00-19:00",
    "id": 66
  },
  {
    "shop": "Coop",
    "name": "Coop Pfäffikon ZH Turmstrasse 10",
    "address": "Turmstrasse 10",
    "city": "Pfäffikon ZH",
    "plz": "8330",
    "lat": 47.368887,
    "lng": 8.7819351,
    "phone": "",
    "hours": "Mo–Sa 08:00-20:00",
    "id": 67
  },
  {
    "shop": "Coop",
    "name": "Coop Zürich Wiedikon am Bahnhof",
    "address": "Birmensdorferstrasse 55",
    "city": "Zürich",
    "plz": "8004",
    "lat": 47.3713618,
    "lng": 8.5249359,
    "phone": "",
    "hours": "Mo–Sa 06:00-23:00",
    "id": 68
  },
  {
    "shop": "Coop",
    "name": "Coop",
    "address": "Rue du Pâquis 2",
    "city": "",
    "plz": "",
    "lat": 46.5863427,
    "lng": 6.6046687,
    "phone": "",
    "hours": "Mo–Fr 08:00-19:00;Sa 08:00-18:00",
    "id": 69
  },
  {
    "shop": "Coop",
    "name": "Coop",
    "address": "",
    "city": "",
    "plz": "",
    "lat": 47.4578086,
    "lng": 8.4383315,
    "phone": "+41 44 403 58 50",
    "hours": "Mo–Sa 07:30-20:00",
    "id": 70
  },
  {
    "shop": "Coop",
    "name": "Coop",
    "address": "",
    "city": "",
    "plz": "",
    "lat": 46.0972862,
    "lng": 7.2252409,
    "phone": "",
    "hours": "",
    "id": 71
  },
  {
    "shop": "Coop",
    "name": "Coop",
    "address": "",
    "city": "",
    "plz": "8400",
    "lat": 47.5084495,
    "lng": 8.7178269,
    "phone": "",
    "hours": "Mo–Fr 08:00-20:00; Sa 08:00-18:00",
    "id": 72
  },
  {
    "shop": "Coop",
    "name": "Coop Herzogenbuchsee",
    "address": "",
    "city": "",
    "plz": "",
    "lat": 47.1861491,
    "lng": 7.7034116,
    "phone": "",
    "hours": "Mo-Th 08:00-19:00; Fr 08:00-21:00; Sa 07:30-17:00",
    "id": 73
  },
  {
    "shop": "Coop",
    "name": "Coop Neuenhof",
    "address": "",
    "city": "",
    "plz": "",
    "lat": 47.4490931,
    "lng": 8.3283703,
    "phone": "",
    "hours": "Mo–Fr 08:00-19:00; Sa 08:00-18:00",
    "id": 74
  },
  {
    "shop": "Coop",
    "name": "Coop Zürich Rütihof",
    "address": "Rütihofstrasse 15",
    "city": "Zürich",
    "plz": "8049",
    "lat": 47.4137195,
    "lng": 8.4794588,
    "phone": "",
    "hours": "Mo–Sa 08:00-20:00",
    "id": 75
  },
  {
    "shop": "Coop",
    "name": "Coop Zürich Seebach",
    "address": "Schaffhauserstrasse 499",
    "city": "Zürich",
    "plz": "8052",
    "lat": 47.4214367,
    "lng": 8.54969,
    "phone": "",
    "hours": "Mo–Sa 06:00-23:00",
    "id": 76
  },
  {
    "shop": "Coop",
    "name": "Coop Zürich Oerlikon",
    "address": "Wallisellenstrasse 1",
    "city": "Zürich",
    "plz": "8050",
    "lat": 47.410399,
    "lng": 8.5466217,
    "phone": "",
    "hours": "Mo–Fr 08:00-20:00; Sa 08:00-18:00",
    "id": 77
  },
  {
    "shop": "Coop",
    "name": "Coop",
    "address": "",
    "city": "",
    "plz": "",
    "lat": 46.5437592,
    "lng": 6.6604812,
    "phone": "",
    "hours": "",
    "id": 78
  },
  {
    "shop": "Coop",
    "name": "Coop",
    "address": "",
    "city": "",
    "plz": "",
    "lat": 46.0096804,
    "lng": 8.9646177,
    "phone": "",
    "hours": "",
    "id": 79
  },
  {
    "shop": "Coop",
    "name": "Coop",
    "address": "",
    "city": "",
    "plz": "",
    "lat": 46.323691,
    "lng": 10.0547859,
    "phone": "",
    "hours": "Mo–Fr 08:00-12:15,13:30-18:30; Sa 08:00-18:00",
    "id": 80
  },
  {
    "shop": "Coop",
    "name": "Coop Zürich Hohlstrasse",
    "address": "Hohlstrasse 35",
    "city": "Zürich",
    "plz": "8004",
    "lat": 47.3770779,
    "lng": 8.5264444,
    "phone": "",
    "hours": "Mo–Sa 07:00-22:00",
    "id": 81
  },
  {
    "shop": "Coop",
    "name": "Coop Zürich Universitätstrasse",
    "address": "Universitätstrasse 73",
    "city": "Zürich",
    "plz": "8006",
    "lat": 47.3824677,
    "lng": 8.5479911,
    "phone": "",
    "hours": "Mo–Fr 07:00-21:00; Sa 07:30-21:00",
    "id": 82
  },
  {
    "shop": "Coop",
    "name": "Coop",
    "address": "",
    "city": "",
    "plz": "",
    "lat": 46.1267565,
    "lng": 7.0601581,
    "phone": "",
    "hours": "Mo-Th 06:00-21:00; Fr-Su 06:00-22:00",
    "id": 83
  },
  {
    "shop": "Coop",
    "name": "Coop",
    "address": "",
    "city": "",
    "plz": "",
    "lat": 46.9494937,
    "lng": 7.4417109,
    "phone": "",
    "hours": "Mo 09:00-19:00; Tu,We 08:00-19:00; Th,Fr 08:00-20:00; Sa 08:00-18:00; PH off",
    "id": 84
  },
  {
    "shop": "Coop",
    "name": "Coop Wädenswil",
    "address": "Zugerstrasse 6",
    "city": "Wädenswil",
    "plz": "8820",
    "lat": 47.2300812,
    "lng": 8.6725008,
    "phone": "",
    "hours": "",
    "id": 85
  },
  {
    "shop": "Coop",
    "name": "Coop Zürich Lochergut",
    "address": "Badenerstrasse 244",
    "city": "Zürich",
    "plz": "8004",
    "lat": 47.3757598,
    "lng": 8.5172277,
    "phone": "",
    "hours": "Mo–Sa 07:00-22:00; PH off",
    "id": 86
  },
  {
    "shop": "Coop",
    "name": "Coop Zürich Langstrasse",
    "address": "Badenerstrasse 120",
    "city": "Zürich",
    "plz": "8004",
    "lat": 47.3744932,
    "lng": 8.5240393,
    "phone": "",
    "hours": "Mo–Sa 06:00-23:00",
    "id": 87
  },
  {
    "shop": "Coop",
    "name": "Coop",
    "address": "",
    "city": "",
    "plz": "",
    "lat": 47.4843395,
    "lng": 8.4657426,
    "phone": "",
    "hours": "08:00-20:00; Su off",
    "id": 88
  },
  {
    "shop": "Coop",
    "name": "Coop Regensdorf Rägi-Märt",
    "address": "",
    "city": "",
    "plz": "",
    "lat": 47.4372358,
    "lng": 8.4746548,
    "phone": "",
    "hours": "Mo–Sa 08:00-21:00",
    "id": 89
  },
  {
    "shop": "Coop",
    "name": "Coop",
    "address": "",
    "city": "",
    "plz": "",
    "lat": 47.4930052,
    "lng": 8.8996297,
    "phone": "",
    "hours": "Mo–Fr 08:00-20:00; Sa 08:00-18:00",
    "id": 90
  },
  {
    "shop": "Coop",
    "name": "Coop Emmenbrücke Sprengi",
    "address": "Erlenstrasse 4",
    "city": "Emmenbrücke",
    "plz": "6020",
    "lat": 47.0810256,
    "lng": 8.271125,
    "phone": "",
    "hours": "",
    "id": 91
  },
  {
    "shop": "Coop",
    "name": "Coop",
    "address": "",
    "city": "",
    "plz": "",
    "lat": 47.5404492,
    "lng": 9.1838331,
    "phone": "",
    "hours": "Mo–Fr 07:30-19:00; Sa 07:30-18:00",
    "id": 92
  },
  {
    "shop": "Coop",
    "name": "Coop Zürich ETH Hönggerberg",
    "address": "Wolfgang-Pauli-Strasse 14",
    "city": "Zürich",
    "plz": "8049",
    "lat": 47.4083614,
    "lng": 8.5079214,
    "phone": "",
    "hours": "Mo–Fr 07:30-19:00; Sa 09:00-17:00",
    "id": 93
  },
  {
    "shop": "Coop",
    "name": "Coop Zürich Schaffhauserplatz",
    "address": "Hofwiesenstrasse 5",
    "city": "Zürich",
    "plz": "8057",
    "lat": 47.3922444,
    "lng": 8.5381347,
    "phone": "",
    "hours": "Mo–Sa 06:00-23:00",
    "id": 94
  },
  {
    "shop": "Coop",
    "name": "Coop Zürich Milchbuck",
    "address": "Milchbuckstrasse 1-5",
    "city": "Zürich",
    "plz": "8057",
    "lat": 47.3957248,
    "lng": 8.5404707,
    "phone": "+41432551420",
    "hours": "Mo–Sa 07:30-21:00",
    "id": 95
  },
  {
    "shop": "Coop",
    "name": "Coop Biel/Bienne Mettstrasse 139",
    "address": "Mettstrasse 139",
    "city": "Biel/Bienne",
    "plz": "2504",
    "lat": 47.1433768,
    "lng": 7.2726161,
    "phone": "",
    "hours": "Mo-Th 07:00-19:00; Fr 07:00-20:00; Sa 07:00-17:00",
    "id": 96
  },
  {
    "shop": "Coop",
    "name": "Coop Plan-les-Ouates Chem. de Vers 2",
    "address": "Chem. de Vers 2",
    "city": "Plan-les-Ouates",
    "plz": "1228",
    "lat": 46.1690059,
    "lng": 6.1210727,
    "phone": "",
    "hours": "Mo-We 07:30-19:00; Th 07:30-20:00; Fr 07:30-19:30; Sa 07:30-18:00",
    "id": 97
  },
  {
    "shop": "Coop",
    "name": "Coop",
    "address": "",
    "city": "",
    "plz": "",
    "lat": 47.4948197,
    "lng": 7.6203554,
    "phone": "",
    "hours": "Mo–Fr 08:00-20:00; Sa 07:30-18:00",
    "id": 98
  },
  {
    "shop": "Coop",
    "name": "Coop Ehrendingen Dorfstrasse 19",
    "address": "Dorfstrasse 19",
    "city": "Ehrendingen",
    "plz": "5420",
    "lat": 47.4942966,
    "lng": 8.3410211,
    "phone": "+41 56 404 5020",
    "hours": "Mo–Fr 08:00-20:00; Sa 07:30-18:00",
    "id": 99
  },
  {
    "shop": "Coop",
    "name": "Coop",
    "address": "",
    "city": "",
    "plz": "",
    "lat": 46.0786418,
    "lng": 7.1383069,
    "phone": "",
    "hours": "Mo-Th 07:30-18:30; Sa 08:30-17:00; Fr 07:30-20:00",
    "id": 100
  },
  {
    "shop": "Coop",
    "name": "Coop",
    "address": "",
    "city": "",
    "plz": "",
    "lat": 46.2028071,
    "lng": 7.1676941,
    "phone": "",
    "hours": "Mo–Fr 08:00-12:30, 14:00-18:30; Sa 08:00-18:30",
    "id": 101
  },
  {
    "shop": "Coop",
    "name": "Coop",
    "address": "",
    "city": "",
    "plz": "",
    "lat": 47.4456555,
    "lng": 9.1396772,
    "phone": "",
    "hours": "Mo–Fr 08:00-19:00; Sa 08:00-17:00; Su off",
    "id": 102
  },
  {
    "shop": "Coop",
    "name": "Coop Münchenbuchsee Oberdorfstrasse 39",
    "address": "Oberdorfstrasse 39",
    "city": "Münchenbuchsee",
    "plz": "3053",
    "lat": 47.019854,
    "lng": 7.4447224,
    "phone": "+41 31 868 06 30",
    "hours": "Mo-Th 07:00-19:00; Fr 07:00-20:00; Sa 07:00-17:00",
    "id": 103
  },
  {
    "shop": "Coop",
    "name": "Coop Allschwil",
    "address": "Hegenheimermattweg 119",
    "city": "Allschwil",
    "plz": "4123",
    "lat": 47.5574974,
    "lng": 7.5469471,
    "phone": "",
    "hours": "",
    "id": 104
  },
  {
    "shop": "Coop",
    "name": "Coop",
    "address": "Avenue du Chablais 41",
    "city": "",
    "plz": "",
    "lat": 46.524654,
    "lng": 6.6026822,
    "phone": "+41 21 620 05 90",
    "hours": "Mo-Th 07:00-19:00; Fr 07:00-20:00; Sa 07:00-18:00",
    "id": 105
  },
  {
    "shop": "Coop",
    "name": "Coop",
    "address": "Bernstrasse 15",
    "city": "",
    "plz": "3294",
    "lat": 47.1398007,
    "lng": 7.3777006,
    "phone": "",
    "hours": "",
    "id": 106
  },
  {
    "shop": "Coop",
    "name": "Coop",
    "address": "",
    "city": "",
    "plz": "",
    "lat": 46.3076473,
    "lng": 7.4677237,
    "phone": "",
    "hours": "PH,Mo-Su 08:00-19:00",
    "id": 107
  },
  {
    "shop": "Coop",
    "name": "Coop",
    "address": "",
    "city": "",
    "plz": "4450",
    "lat": 47.4634823,
    "lng": 7.8135513,
    "phone": "",
    "hours": "Mo–Fr 08:00-20:00; Sa 07:30-18:00",
    "id": 108
  },
  {
    "shop": "Coop",
    "name": "Coop Goldau Bahnhof",
    "address": "Bahnhofstrasse 1",
    "city": "Goldau",
    "plz": "6410",
    "lat": 47.0490756,
    "lng": 8.5492944,
    "phone": "+41 41 252 23 00",
    "hours": "Mo–Sa 06:00-22:00; Su 07:00-22:00",
    "id": 109
  },
  {
    "shop": "Coop",
    "name": "Coop",
    "address": "",
    "city": "",
    "plz": "",
    "lat": 46.9968688,
    "lng": 6.9367676,
    "phone": "",
    "hours": "Mo-Su 05:00-24:00",
    "id": 110
  },
  {
    "shop": "Coop",
    "name": "Coop",
    "address": "",
    "city": "",
    "plz": "",
    "lat": 47.3936901,
    "lng": 7.6203419,
    "phone": "+41 61 791 0359",
    "hours": "",
    "id": 111
  },
  {
    "shop": "Coop",
    "name": "Coop",
    "address": "",
    "city": "",
    "plz": "",
    "lat": 46.3150341,
    "lng": 7.7442364,
    "phone": "",
    "hours": "",
    "id": 112
  },
  {
    "shop": "Coop",
    "name": "Coop",
    "address": "",
    "city": "",
    "plz": "",
    "lat": 46.2960807,
    "lng": 7.8661349,
    "phone": "",
    "hours": "",
    "id": 113
  },
  {
    "shop": "Coop",
    "name": "Coop Visp Kantonsstrasse 1",
    "address": "Kantonsstrasse 1",
    "city": "Visp",
    "plz": "3930",
    "lat": 46.292416,
    "lng": 7.8802315,
    "phone": "+41 27 948 11 92",
    "hours": "Mo–Fr 09:00-18:30; Sa 09:00-17:00; Su off",
    "id": 114
  },
  {
    "shop": "Coop",
    "name": "Coop",
    "address": "",
    "city": "",
    "plz": "",
    "lat": 47.5475478,
    "lng": 7.5907574,
    "phone": "",
    "hours": "Mo–Sa 06:00-22:00; Su 07:30-22:00",
    "id": 115
  },
  {
    "shop": "Coop",
    "name": "Coop",
    "address": "",
    "city": "",
    "plz": "",
    "lat": 47.5517393,
    "lng": 7.5945814,
    "phone": "",
    "hours": "Mo–Fr 06:30-20:00; Sa 07:30-18:00",
    "id": 116
  },
  {
    "shop": "Coop",
    "name": "Coop Willisau Ettiswilerstrasse 37",
    "address": "Ettiswilerstrasse 37",
    "city": "Willisau",
    "plz": "6130",
    "lat": 47.1274508,
    "lng": 7.9971057,
    "phone": "+41 41 970 29 69",
    "hours": "Mo-Th 07:30-19:00; Fr 07:30-21:00; Sa 07:30-17:00; PH off",
    "id": 117
  },
  {
    "shop": "Coop",
    "name": "Coop",
    "address": "",
    "city": "",
    "plz": "",
    "lat": 46.9900582,
    "lng": 6.9301393,
    "phone": "",
    "hours": "Mo-We,Fr 08:00-19:00; Th 08:00-20:00; Sa 08:00-18:00",
    "id": 118
  },
  {
    "shop": "Coop",
    "name": "Coop",
    "address": "",
    "city": "",
    "plz": "",
    "lat": 46.6895415,
    "lng": 7.6756433,
    "phone": "",
    "hours": "",
    "id": 119
  },
  {
    "shop": "Coop",
    "name": "Coop Resega",
    "address": "",
    "city": "",
    "plz": "",
    "lat": 46.0284656,
    "lng": 8.9674193,
    "phone": "+41 91 940 11 51",
    "hours": "",
    "id": 120
  },
  {
    "shop": "Coop",
    "name": "Coop Lugano Nord",
    "address": "",
    "city": "",
    "plz": "",
    "lat": 46.0171708,
    "lng": 8.95837,
    "phone": "",
    "hours": "",
    "id": 121
  },
  {
    "shop": "Coop",
    "name": "Coop",
    "address": "",
    "city": "",
    "plz": "",
    "lat": 46.9267947,
    "lng": 7.1151035,
    "phone": "",
    "hours": "Mo–Fr 07:00-20:00; Sa 07:00-18:00; Su 08:00-18:00",
    "id": 122
  },
  {
    "shop": "Coop",
    "name": "Coop Biel/Bienne Solothurnstrasse 132",
    "address": "Solothurnstrasse 132",
    "city": "Biel/Bienne",
    "plz": "2504",
    "lat": 47.1605058,
    "lng": 7.2807866,
    "phone": "+41 32 345 1755",
    "hours": "Mo-Su 06:00-22:00",
    "id": 123
  },
  {
    "shop": "Coop",
    "name": "Coop Bern Bethlehem",
    "address": "",
    "city": "",
    "plz": "",
    "lat": 46.9507635,
    "lng": 7.3922189,
    "phone": "",
    "hours": "Mo-Th 08:00-19:00; Fr 08:00-21:00; Sa 07:30-17:00; Su,PH closed",
    "id": 124
  },
  {
    "shop": "Coop",
    "name": "Coop Kilchberg ZH Bahnhofstrasse 9",
    "address": "Bahnhofstrasse 9",
    "city": "Kilchberg ZH",
    "plz": "8802",
    "lat": 47.3231907,
    "lng": 8.5488182,
    "phone": "",
    "hours": "Mo–Sa 07:00-20:00",
    "id": 125
  },
  {
    "shop": "Coop",
    "name": "Coop",
    "address": "",
    "city": "",
    "plz": "",
    "lat": 47.4913378,
    "lng": 8.5039742,
    "phone": "",
    "hours": "",
    "id": 126
  },
  {
    "shop": "Coop",
    "name": "Coop Oberägeri",
    "address": "Hauptstrasse 15",
    "city": "Oberägeri",
    "plz": "6315",
    "lat": 47.1350027,
    "lng": 8.6131199,
    "phone": "",
    "hours": "",
    "id": 127
  },
  {
    "shop": "Coop",
    "name": "Coop",
    "address": "",
    "city": "",
    "plz": "",
    "lat": 46.1751331,
    "lng": 7.5735951,
    "phone": "",
    "hours": "Mo-Su 08:00-19:00",
    "id": 128
  },
  {
    "shop": "Coop",
    "name": "Coop Brunnen Bahnhof",
    "address": "",
    "city": "",
    "plz": "",
    "lat": 46.9992561,
    "lng": 8.6099436,
    "phone": "",
    "hours": "Mo-Su, PH 05:00-23:00",
    "id": 129
  },
  {
    "shop": "Coop",
    "name": "Coop",
    "address": "",
    "city": "",
    "plz": "",
    "lat": 47.458697,
    "lng": 8.3289577,
    "phone": "",
    "hours": "Mo–Sa 08:00-20:00",
    "id": 130
  },
  {
    "shop": "Coop",
    "name": "Coop Ebikon Hofmatt",
    "address": "Zentralstrasse 34",
    "city": "Ebikon",
    "plz": "6030",
    "lat": 47.0829436,
    "lng": 8.3436961,
    "phone": "+41 41 444 14 34",
    "hours": "",
    "id": 131
  },
  {
    "shop": "Coop",
    "name": "Coop",
    "address": "Rue de la Banque 2",
    "city": "",
    "plz": "",
    "lat": 47.0570842,
    "lng": 6.7471082,
    "phone": "",
    "hours": "Mo-We,Fr 07:30-19:00; Th 07:30-20:00; Sa 07:30-18:00; Su off",
    "id": 132
  },
  {
    "shop": "Coop",
    "name": "Coop",
    "address": "",
    "city": "",
    "plz": "",
    "lat": 46.8199334,
    "lng": 7.3420602,
    "phone": "",
    "hours": "Mo-Th 08:00-19:00; Fr 08:00-20:00; Sa 07:30-17:00; Su off",
    "id": 133
  },
  {
    "shop": "Coop",
    "name": "Coop Ecublens (VD) Chemin du Croset 3",
    "address": "Chemin du Croset 3",
    "city": "Ecublens (VD)",
    "plz": "1024",
    "lat": 46.5339359,
    "lng": 6.5666981,
    "phone": "+41 21 694 21 60",
    "hours": "Mo-Th 08:00-19:30; Fr 08:00-20:00; Sa 08:00-18:00",
    "id": 134
  },
  {
    "shop": "Coop",
    "name": "Coop",
    "address": "",
    "city": "",
    "plz": "",
    "lat": 47.4628444,
    "lng": 8.5258392,
    "phone": "",
    "hours": "Mo–Fr 09:00-20:00, Sa 08:00-18:00",
    "id": 135
  },
  {
    "shop": "Coop",
    "name": "Coop Zug Bundesplatz 11",
    "address": "Bundesplatz 11",
    "city": "Zug",
    "plz": "6300",
    "lat": 47.171496,
    "lng": 8.5145777,
    "phone": "",
    "hours": "",
    "id": 136
  },
  {
    "shop": "Coop",
    "name": "Coop",
    "address": "",
    "city": "",
    "plz": "",
    "lat": 47.5211682,
    "lng": 7.6072997,
    "phone": "",
    "hours": "",
    "id": 137
  },
  {
    "shop": "Coop",
    "name": "Coop Bremgarten Sunne Märt",
    "address": "",
    "city": "",
    "plz": "",
    "lat": 47.35174,
    "lng": 8.3485925,
    "phone": "",
    "hours": "Mo–Fr 08:00-20:00; Sa 07:30-18:00; PH closed",
    "id": 138
  },
  {
    "shop": "Coop",
    "name": "Coop",
    "address": "",
    "city": "",
    "plz": "",
    "lat": 47.2727211,
    "lng": 8.3410133,
    "phone": "",
    "hours": "",
    "id": 139
  },
  {
    "shop": "Coop",
    "name": "Coop",
    "address": "",
    "city": "",
    "plz": "",
    "lat": 47.0179953,
    "lng": 7.6604638,
    "phone": "",
    "hours": "",
    "id": 140
  },
  {
    "shop": "Coop",
    "name": "Coop",
    "address": "",
    "city": "",
    "plz": "",
    "lat": 47.5229716,
    "lng": 8.7876518,
    "phone": "",
    "hours": "Mo–Fr 07:30-19:00; Sa 07:30-18:00",
    "id": 141
  },
  {
    "shop": "Coop",
    "name": "Coop",
    "address": "",
    "city": "",
    "plz": "",
    "lat": 47.0364206,
    "lng": 7.630821,
    "phone": "",
    "hours": "Mo-Th 08:00-19:00; Fr 08:00-20:00; Sa 07:30-17:00",
    "id": 142
  },
  {
    "shop": "Coop",
    "name": "Coop Burgdorf Sägegasse 14",
    "address": "Sägegasse 14",
    "city": "Burgdorf",
    "plz": "3400",
    "lat": 47.0569221,
    "lng": 7.6293304,
    "phone": "+41 34 427 25 20",
    "hours": "Mo-Th 08:00-19:00; Fr 08:00-21:00; Sa 08:00-17:00; PH off",
    "id": 143
  },
  {
    "shop": "Coop",
    "name": "Coop Schenkon",
    "address": "Zellfeld",
    "city": "Schenkon",
    "plz": "6214",
    "lat": 47.1779153,
    "lng": 8.1262972,
    "phone": "",
    "hours": "",
    "id": 144
  },
  {
    "shop": "Coop",
    "name": "Coop Egerkingen Gäupark",
    "address": "",
    "city": "",
    "plz": "",
    "lat": 47.3181934,
    "lng": 7.8031332,
    "phone": "",
    "hours": "Mo–Fr 09:00-18:30; Th 09:00-21:00; Sa 08:00-18:00; PH off",
    "id": 145
  },
  {
    "shop": "Coop",
    "name": "Coop Zürich Schwamendingen",
    "address": "Saatlenstrasse 12",
    "city": "Zürich",
    "plz": "8051",
    "lat": 47.404782,
    "lng": 8.5718792,
    "phone": "",
    "hours": "Mo–Sa 06:30-21:00",
    "id": 146
  },
  {
    "shop": "Coop",
    "name": "Coop Bubendorf",
    "address": "",
    "city": "",
    "plz": "",
    "lat": 47.4538454,
    "lng": 7.736472,
    "phone": "",
    "hours": "",
    "id": 147
  },
  {
    "shop": "Coop",
    "name": "Coop Adligenswil",
    "address": "Im Zentrum 3",
    "city": "Adligenswil",
    "plz": "6043",
    "lat": 47.0718025,
    "lng": 8.3645211,
    "phone": "",
    "hours": "",
    "id": 148
  },
  {
    "shop": "Coop",
    "name": "Coop Piscine",
    "address": "",
    "city": "",
    "plz": "",
    "lat": 47.0956257,
    "lng": 6.8303769,
    "phone": "",
    "hours": "Mo–Fr 07:30-19:00; Sa 07:30-18:00",
    "id": 149
  },
  {
    "shop": "Coop",
    "name": "Coop",
    "address": "",
    "city": "",
    "plz": "",
    "lat": 46.020007,
    "lng": 8.9685519,
    "phone": "+41 91 941 10 46",
    "hours": "Mo–Fr 08:15-12:00,14:00-18:30; Sa 08:15-17:00",
    "id": 150
  },
  {
    "shop": "Coop",
    "name": "Coop",
    "address": "",
    "city": "",
    "plz": "",
    "lat": 47.4097675,
    "lng": 9.6246264,
    "phone": "",
    "hours": "Mo-Th 07:30-19:00; Fr 07:30-20:00; Sa 07:30-17:00",
    "id": 151
  },
  {
    "shop": "Coop",
    "name": "Coop A2 Neuenkirch Ost",
    "address": "",
    "city": "",
    "plz": "",
    "lat": 47.113341,
    "lng": 8.2331039,
    "phone": "",
    "hours": "Mo-Su 06:00-23:00",
    "id": 152
  },
  {
    "shop": "Coop",
    "name": "Coop",
    "address": "",
    "city": "",
    "plz": "",
    "lat": 47.406111,
    "lng": 8.4040421,
    "phone": "",
    "hours": "Su-Th 05:30-23:00; Fr,Sa 05:30-24:00",
    "id": 153
  },
  {
    "shop": "Coop",
    "name": "Coop Peseux Rue des Uttins 1",
    "address": "Rue des Uttins 1",
    "city": "Peseux",
    "plz": "2034",
    "lat": 46.9885951,
    "lng": 6.8911827,
    "phone": "",
    "hours": "",
    "id": 154
  },
  {
    "shop": "Coop",
    "name": "Coop Muttenz Brühlweg 8",
    "address": "Brühlweg 8",
    "city": "Muttenz",
    "plz": "4132",
    "lat": 47.5277297,
    "lng": 7.64706,
    "phone": "+41 61 465 56 60",
    "hours": "Mo–Fr 08:00-20:00; Sa 7:30-20:00; PH off",
    "id": 155
  },
  {
    "shop": "Coop",
    "name": "Coop",
    "address": "",
    "city": "",
    "plz": "",
    "lat": 46.990575,
    "lng": 6.9297971,
    "phone": "",
    "hours": "Mo-We,Fr 07:30-19:00; Th 07:30-20:00; Sa 07:30-18:00",
    "id": 156
  },
  {
    "shop": "Coop",
    "name": "Coop",
    "address": "",
    "city": "",
    "plz": "",
    "lat": 46.4739467,
    "lng": 7.13323,
    "phone": "",
    "hours": "Mo-Su 08:00-19:00",
    "id": 157
  },
  {
    "shop": "Coop",
    "name": "Coop Reinach AG",
    "address": "",
    "city": "",
    "plz": "",
    "lat": 47.2655528,
    "lng": 8.1765509,
    "phone": "",
    "hours": "",
    "id": 158
  },
  {
    "shop": "Coop",
    "name": "Coop",
    "address": "",
    "city": "",
    "plz": "",
    "lat": 46.482331,
    "lng": 6.4570589,
    "phone": "",
    "hours": "",
    "id": 159
  },
  {
    "shop": "Coop",
    "name": "Coop Aarau Igelweid 17",
    "address": "Igelweid 17",
    "city": "Aarau",
    "plz": "5000",
    "lat": 47.3916041,
    "lng": 8.0459066,
    "phone": "",
    "hours": "Mo–Fr 08:00-19:00; Sa 08:00-18:00",
    "id": 160
  },
  {
    "shop": "Coop",
    "name": "Coop",
    "address": "",
    "city": "",
    "plz": "",
    "lat": 47.4036741,
    "lng": 8.4023845,
    "phone": "",
    "hours": "Mo–Sa 07:00-21:00; PH closed",
    "id": 161
  },
  {
    "shop": "Coop",
    "name": "Coop",
    "address": "",
    "city": "",
    "plz": "",
    "lat": 46.2937368,
    "lng": 7.8815361,
    "phone": "",
    "hours": "Mo-Su 05:00-23:00",
    "id": 162
  },
  {
    "shop": "Coop",
    "name": "Coop Turbenthal Hofwiesweg 2",
    "address": "Hofwiesweg 2",
    "city": "Turbenthal",
    "plz": "8488",
    "lat": 47.4399399,
    "lng": 8.8441583,
    "phone": "+41 52 385 11 08",
    "hours": "",
    "id": 163
  },
  {
    "shop": "Coop",
    "name": "Coop Embrach Dorfstrasse 138",
    "address": "Dorfstrasse 138",
    "city": "Embrach",
    "plz": "8424",
    "lat": 47.5109061,
    "lng": 8.5941475,
    "phone": "+41 44 865 02 43",
    "hours": "Mo–Fr 08:00-20:00; Sa 08:00-18:00",
    "id": 164
  },
  {
    "shop": "Coop",
    "name": "Coop",
    "address": "",
    "city": "",
    "plz": "",
    "lat": 47.3985221,
    "lng": 8.0063041,
    "phone": "",
    "hours": "Mo–Fr 08:00-12:30,14:00-18:30; Sa 08:00-17:00",
    "id": 165
  },
  {
    "shop": "Coop",
    "name": "Coop",
    "address": "",
    "city": "",
    "plz": "",
    "lat": 46.6737437,
    "lng": 9.6840034,
    "phone": "",
    "hours": "Tu-Fr 08:00-12:15,14:00-18:30; Sa 08:00-12:15,13:30-17:00; Su,Mo,PH closed",
    "id": 166
  },
  {
    "shop": "Coop",
    "name": "Coop Ascona Via Buonamano 1",
    "address": "Via Buonamano 1",
    "city": "Ascona",
    "plz": "6612",
    "lat": 46.1557134,
    "lng": 8.7714078,
    "phone": "",
    "hours": "Mo–Fr 08:00-19:00; Sa 08:00-18:30",
    "id": 167
  },
  {
    "shop": "Coop",
    "name": "Coop",
    "address": "",
    "city": "",
    "plz": "",
    "lat": 46.0621377,
    "lng": 8.9288412,
    "phone": "",
    "hours": "",
    "id": 168
  },
  {
    "shop": "Coop",
    "name": "Coop Feuerthalen Rhymarkt",
    "address": "Schützenstrasse 30",
    "city": "Feuerthalen",
    "plz": "8245",
    "lat": 47.6906791,
    "lng": 8.6465667,
    "phone": "+41 52 647 46 00",
    "hours": "Mo–Sa 08:00-20:00",
    "id": 169
  },
  {
    "shop": "Coop",
    "name": "Coop Langwiesen",
    "address": "",
    "city": "",
    "plz": "",
    "lat": 47.6843704,
    "lng": 8.6600427,
    "phone": "",
    "hours": "",
    "id": 170
  },
  {
    "shop": "Coop",
    "name": "Coop",
    "address": "",
    "city": "",
    "plz": "",
    "lat": 46.9393949,
    "lng": 7.4369994,
    "phone": "+41 31 3701240",
    "hours": "Mo–Fr 07:00-20:00; Sa 07:00-17:00",
    "id": 171
  },
  {
    "shop": "Coop",
    "name": "Coop Root",
    "address": "Bahnhofstrasse 17",
    "city": "Root",
    "plz": "6037",
    "lat": 47.1177285,
    "lng": 8.391826,
    "phone": "",
    "hours": "Mo-Th 07:30-19:00; Fr 07:30-20:00; Sa 07:30-17:00",
    "id": 172
  },
  {
    "shop": "Coop",
    "name": "Coop",
    "address": "",
    "city": "",
    "plz": "",
    "lat": 46.7035278,
    "lng": 6.754352,
    "phone": "",
    "hours": "",
    "id": 173
  },
  {
    "shop": "Coop",
    "name": "Coop",
    "address": "Bahnhofstrasse 4",
    "city": "",
    "plz": "",
    "lat": 47.0474355,
    "lng": 9.4407033,
    "phone": "",
    "hours": "Mo–Fr 07:00-19:00; Sa 08:00-17:00",
    "id": 174
  },
  {
    "shop": "Coop",
    "name": "Coop",
    "address": "",
    "city": "",
    "plz": "",
    "lat": 47.4977635,
    "lng": 8.9535394,
    "phone": "",
    "hours": "Mo–Fr 07:30-19:00; Sa 07:30-18:00",
    "id": 175
  },
  {
    "shop": "Coop",
    "name": "Coop",
    "address": "Bahnhofstrasse 15",
    "city": "",
    "plz": "",
    "lat": 47.2528641,
    "lng": 7.6474764,
    "phone": "+41 32 636 5380",
    "hours": "Mo–Fr 08:00-19:00; Sa 07:30-17:00; PH off",
    "id": 176
  },
  {
    "shop": "Coop",
    "name": "Coop St.Gallen Bohl 6",
    "address": "Bohl 6",
    "city": "St.Gallen",
    "plz": "9000",
    "lat": 47.4261988,
    "lng": 9.3769401,
    "phone": "",
    "hours": "Mo-We,Fr 08:00-19:00; Th 08:00-20:00; Sa 08:00-18:00",
    "id": 177
  },
  {
    "shop": "Coop",
    "name": "Coop",
    "address": "",
    "city": "",
    "plz": "",
    "lat": 47.0629729,
    "lng": 7.616427,
    "phone": "",
    "hours": "Mo-Su 09:00-22:00",
    "id": 178
  },
  {
    "shop": "Coop",
    "name": "Coop Andermatt Gotthardstrasse 30",
    "address": "Gotthardstrasse 30",
    "city": "Andermatt",
    "plz": "6490",
    "lat": 46.6344598,
    "lng": 8.5963576,
    "phone": "",
    "hours": "Mo–Fr 07:30-18:30; Sa 07:30-18:00",
    "id": 179
  },
  {
    "shop": "Coop",
    "name": "Coop Domodossola",
    "address": "Piazza Matteotti 10",
    "city": "Domodossola",
    "plz": "28845",
    "lat": 46.1161494,
    "lng": 8.2957359,
    "phone": "",
    "hours": "Mo–Sa 08:30-19:30; Su 08:30-12:30;",
    "id": 180
  },
  {
    "shop": "Coop",
    "name": "Coop",
    "address": "",
    "city": "",
    "plz": "",
    "lat": 47.3973132,
    "lng": 8.6167086,
    "phone": "",
    "hours": "Mo–Sa 07:30-21:00; PH closed",
    "id": 181
  },
  {
    "shop": "Coop",
    "name": "Coop",
    "address": "",
    "city": "",
    "plz": "",
    "lat": 47.0411367,
    "lng": 7.3792755,
    "phone": "+41 31 303 51 60",
    "hours": "Mo–Fr 07:00-19:00; Sa 07:00-17:00; Su,PH closed",
    "id": 182
  },
  {
    "shop": "Coop",
    "name": "Coop",
    "address": "",
    "city": "",
    "plz": "",
    "lat": 47.5893536,
    "lng": 8.2916965,
    "phone": "",
    "hours": "",
    "id": 183
  },
  {
    "shop": "Coop",
    "name": "Coop",
    "address": "",
    "city": "",
    "plz": "",
    "lat": 47.0475114,
    "lng": 9.4211052,
    "phone": "",
    "hours": "",
    "id": 184
  },
  {
    "shop": "Coop",
    "name": "Coop",
    "address": "",
    "city": "",
    "plz": "",
    "lat": 47.5202225,
    "lng": 7.6916191,
    "phone": "",
    "hours": "Mo–Fr 08:00-20:00; Sa 07:30-20:00",
    "id": 185
  },
  {
    "shop": "Coop",
    "name": "Coop",
    "address": "",
    "city": "",
    "plz": "",
    "lat": 46.2487937,
    "lng": 7.0042616,
    "phone": "",
    "hours": "Mo-Th 07:00-19:00; Fr 07:30-20:00; Sa 07:30-18:00",
    "id": 186
  },
  {
    "shop": "Coop",
    "name": "Coop",
    "address": "",
    "city": "",
    "plz": "",
    "lat": 47.1320307,
    "lng": 7.242409,
    "phone": "+41 32 323 8804",
    "hours": "Mo-Su 06:00-22:00",
    "id": 187
  },
  {
    "shop": "Coop",
    "name": "Coop Zürich Josefstrasse",
    "address": "Röntgenstrasse 48",
    "city": "Zürich",
    "plz": "8005",
    "lat": 47.3847889,
    "lng": 8.527125,
    "phone": "",
    "hours": "Mo–Sa 07:00-21:00",
    "id": 188
  },
  {
    "shop": "Coop",
    "name": "Coop",
    "address": "Illnauerstrasse 16",
    "city": "",
    "plz": "",
    "lat": 47.4269489,
    "lng": 8.6922748,
    "phone": "",
    "hours": "Mo–Sa 07:00-20:00; PH off",
    "id": 189
  },
  {
    "shop": "Coop",
    "name": "Coop",
    "address": "",
    "city": "",
    "plz": "",
    "lat": 47.4282324,
    "lng": 8.6850257,
    "phone": "",
    "hours": "Mo,Tu,We,Sa 07:30-19:00; Th,Fr 07:30-20:00; PH off",
    "id": 190
  },
  {
    "shop": "Coop",
    "name": "Coop",
    "address": "",
    "city": "",
    "plz": "",
    "lat": 47.2554228,
    "lng": 8.6897575,
    "phone": "",
    "hours": "Mo–Sa 07:00-20:00",
    "id": 191
  },
  {
    "shop": "Coop",
    "name": "Coop Eschenbach SG",
    "address": "Obergass 15",
    "city": "Eschenbach",
    "plz": "8733",
    "lat": 47.2408037,
    "lng": 8.9199459,
    "phone": "",
    "hours": "",
    "id": 192
  },
  {
    "shop": "Coop",
    "name": "Coop Zürich Friesenberg",
    "address": "Friesenbergplatz 3",
    "city": "Zürich",
    "plz": "8045",
    "lat": 47.3609191,
    "lng": 8.5068265,
    "phone": "",
    "hours": "Mo–Sa 07:30-20:00",
    "id": 193
  },
  {
    "shop": "Coop",
    "name": "Coop Davos Platz",
    "address": "",
    "city": "Davos Platz",
    "plz": "7270",
    "lat": 46.792585,
    "lng": 9.8208079,
    "phone": "",
    "hours": "Mo–Fr 08:00-20:00; Sa 08:00-18:00",
    "id": 194
  },
  {
    "shop": "Coop",
    "name": "Coop",
    "address": "",
    "city": "",
    "plz": "",
    "lat": 46.4665796,
    "lng": 6.8943173,
    "phone": "",
    "hours": "",
    "id": 195
  },
  {
    "shop": "Coop",
    "name": "Coop",
    "address": "",
    "city": "",
    "plz": "",
    "lat": 47.0763271,
    "lng": 7.3061523,
    "phone": "",
    "hours": "05:00-23:00",
    "id": 196
  },
  {
    "shop": "Coop",
    "name": "Coop",
    "address": "",
    "city": "",
    "plz": "",
    "lat": 47.6015825,
    "lng": 9.0007105,
    "phone": "",
    "hours": "Mo–Fr 08:00-19:00; Sa 08:00-18:00",
    "id": 197
  },
  {
    "shop": "Coop",
    "name": "Coop Chur Quaderstrasse 36",
    "address": "Quaderstrasse 36",
    "city": "Chur",
    "plz": "7000",
    "lat": 46.8522999,
    "lng": 9.5346368,
    "phone": "",
    "hours": "Mo–Fr 08:00-20:00; Sa 08:00-18:00",
    "id": 198
  },
  {
    "shop": "Coop",
    "name": "Coop",
    "address": "",
    "city": "",
    "plz": "",
    "lat": 46.8525288,
    "lng": 9.53171,
    "phone": "",
    "hours": "Mo-Th 09:00-19:00; Fr 09:00-20:00; Sa 08:30-18:00",
    "id": 199
  },
  {
    "shop": "Coop",
    "name": "Coop Bern Stauffacherstrasse 2",
    "address": "Stauffacherstrasse 2",
    "city": "Bern",
    "plz": "3014",
    "lat": 46.959181,
    "lng": 7.4550434,
    "phone": "",
    "hours": "Mo–Fr 07:30-20:00, Sa 07:30-17:00",
    "id": 200
  },
  {
    "shop": "Coop",
    "name": "Coop",
    "address": "",
    "city": "",
    "plz": "",
    "lat": 47.0637281,
    "lng": 7.0966461,
    "phone": "",
    "hours": "",
    "id": 201
  },
  {
    "shop": "Coop",
    "name": "Coop",
    "address": "",
    "city": "",
    "plz": "",
    "lat": 46.7309407,
    "lng": 6.530966,
    "phone": "",
    "hours": "Mo-Th 07:30-18:30; Fr 07:30-20:00; Sa 07:30-17:00",
    "id": 202
  },
  {
    "shop": "Coop",
    "name": "Coop",
    "address": "",
    "city": "",
    "plz": "",
    "lat": 47.0122303,
    "lng": 9.5114537,
    "phone": "",
    "hours": "",
    "id": 203
  },
  {
    "shop": "Coop",
    "name": "Coop Zug Neustadt",
    "address": "Baarerstrasse 6",
    "city": "Zug",
    "plz": "6300",
    "lat": 47.1709854,
    "lng": 8.5164346,
    "phone": "",
    "hours": "",
    "id": 204
  },
  {
    "shop": "Coop",
    "name": "Coop Rotkreuz",
    "address": "Luzernerstrasse 8",
    "city": "Rotkreuz",
    "plz": "6343",
    "lat": 47.1406278,
    "lng": 8.4271575,
    "phone": "+41 41 799 30 70",
    "hours": "Mo-Th 07:30-19:00; Fr 07:30-20:00; Sa 07:30-17:00",
    "id": 205
  },
  {
    "shop": "Coop",
    "name": "Coop Waldstatt Dorfstrasse 16",
    "address": "Dorfstrasse 16",
    "city": "Waldstatt",
    "plz": "9104",
    "lat": 47.3574037,
    "lng": 9.2847714,
    "phone": "+41 71 421 5170",
    "hours": "Mo–Fr 07:30-19:00; Sa 07:30-17:00; Su off",
    "id": 206
  },
  {
    "shop": "Coop",
    "name": "Coop Bern Weltpoststrasse 20",
    "address": "Weltpoststrasse 20",
    "city": "Bern",
    "plz": "3015",
    "lat": 46.9374546,
    "lng": 7.4760187,
    "phone": "",
    "hours": "Mo–Fr 07:00-19:00; Sa 07:00-17:00",
    "id": 207
  },
  {
    "shop": "Coop",
    "name": "Coop",
    "address": "",
    "city": "",
    "plz": "",
    "lat": 47.0590375,
    "lng": 7.6227042,
    "phone": "",
    "hours": "Mo–Fr 07:30-20:00; Sa 07:30-17:00",
    "id": 208
  },
  {
    "shop": "Coop",
    "name": "Coop Bern Giacomettistrasse 15",
    "address": "Giacomettistrasse 15",
    "city": "Bern",
    "plz": "3006",
    "lat": 46.9454179,
    "lng": 7.4724026,
    "phone": "+41 31 350 12 20",
    "hours": "Mo-Th 08:00-19:00; Fr 08:00-21:00; Sa 08:00-17:00; Su,PH off",
    "id": 209
  },
  {
    "shop": "Coop",
    "name": "Coop Aesch Hauptstrasse 95",
    "address": "Hauptstrasse 95",
    "city": "Aesch",
    "plz": "4147",
    "lat": 47.4693583,
    "lng": 7.5955183,
    "phone": "+41 61 756 94 00",
    "hours": "Mo–Fr 08:00-20:00, Sa 07:30-18:00",
    "id": 210
  },
  {
    "shop": "Coop",
    "name": "Coop Schönenwerd Gösgerstrasse 5",
    "address": "Gösgerstrasse 5",
    "city": "Schönenwerd",
    "plz": "5012",
    "lat": 47.3734298,
    "lng": 8.0017439,
    "phone": "",
    "hours": "Mo-We,Fr 07:30-18:30; Th 07:30-20:00; Sa 07:30-18:00",
    "id": 211
  },
  {
    "shop": "Coop",
    "name": "Coop",
    "address": "",
    "city": "",
    "plz": "",
    "lat": 47.0205148,
    "lng": 7.4980778,
    "phone": "",
    "hours": "Mo–Fr 06:30-19:00; Sa 08:00-17:00; Su off",
    "id": 212
  },
  {
    "shop": "Coop",
    "name": "Coop Fällanden Wigartenstrasse 10",
    "address": "Wigartenstrasse 10",
    "city": "Fällanden",
    "plz": "8117",
    "lat": 47.3707637,
    "lng": 8.6421588,
    "phone": "",
    "hours": "Mo–Sa 07:00-20:00",
    "id": 213
  },
  {
    "shop": "Coop",
    "name": "Coop",
    "address": "",
    "city": "",
    "plz": "",
    "lat": 47.4150696,
    "lng": 8.0479275,
    "phone": "",
    "hours": "",
    "id": 214
  },
  {
    "shop": "Coop",
    "name": "Coop",
    "address": "",
    "city": "",
    "plz": "",
    "lat": 47.4185301,
    "lng": 8.3918986,
    "phone": "",
    "hours": "Mo–Sa 08:00-21:00; PH closed",
    "id": 215
  },
  {
    "shop": "Coop",
    "name": "Coop",
    "address": "",
    "city": "",
    "plz": "",
    "lat": 46.996772,
    "lng": 6.9360608,
    "phone": "",
    "hours": "Mo-Su 06:00-22:00",
    "id": 216
  },
  {
    "shop": "Coop",
    "name": "Coop Carouge GE Avenue Cardinal-Mermillod 40",
    "address": "Avenue Cardinal-Mermillod 40",
    "city": "Carouge GE",
    "plz": "",
    "lat": 46.1854644,
    "lng": 6.1440651,
    "phone": "",
    "hours": "Mo-We 07:30-19:00; Th 07:30-20:00; Fr 07:30-19:30; Sa 07:30-18:00",
    "id": 217
  },
  {
    "shop": "Coop",
    "name": "Coop",
    "address": "Rossmarktplatz 19",
    "city": "",
    "plz": "",
    "lat": 47.2046237,
    "lng": 7.5384445,
    "phone": "+41 32 625 9930",
    "hours": "Mo–Fr 07:00-18:30; Th 07:00-20:00; Sa 07:30-18:00; PH off",
    "id": 218
  },
  {
    "shop": "Coop",
    "name": "Coop Echallens Route d'Orbe 4",
    "address": "Route d'Orbe 4",
    "city": "Echallens",
    "plz": "1040",
    "lat": 46.6417695,
    "lng": 6.6310578,
    "phone": "+41 21 886 02 80",
    "hours": "Mo–Fr 07:30-19:00; Sa 07:30-18:00",
    "id": 219
  },
  {
    "shop": "Coop",
    "name": "Coop Affoltern am Albis",
    "address": "",
    "city": "",
    "plz": "",
    "lat": 47.2741112,
    "lng": 8.4456421,
    "phone": "",
    "hours": "",
    "id": 220
  },
  {
    "shop": "Coop",
    "name": "Coop Ziegelei Markt",
    "address": "Märitgasse 1",
    "city": "Zollikofen",
    "plz": "3052",
    "lat": 46.9971474,
    "lng": 7.4587272,
    "phone": "+41 31 910 2440",
    "hours": "Mo-Th 07:00-19:00; Fr 07:00-20:00; Sa 07:00-17:00",
    "id": 221
  },
  {
    "shop": "Coop",
    "name": "Coop",
    "address": "",
    "city": "",
    "plz": "",
    "lat": 46.8369492,
    "lng": 9.4520372,
    "phone": "+41 81 650 30 80",
    "hours": "Mo–Fr 08:00-20:00; Sa 08:00-18:30",
    "id": 222
  },
  {
    "shop": "Coop",
    "name": "Coop",
    "address": "",
    "city": "",
    "plz": "",
    "lat": 46.5319179,
    "lng": 9.870605,
    "phone": "+41 81 851 00 50",
    "hours": "Mo–Fr 08:00-19:00; Sa 08:00-18:00; Su 09:00-18:00",
    "id": 223
  },
  {
    "shop": "Coop",
    "name": "Coop Megastore",
    "address": "",
    "city": "",
    "plz": "",
    "lat": 46.821109,
    "lng": 7.1528103,
    "phone": "",
    "hours": "Mo-We 08:00-19:00; Th 08:00-20:00; Fr 08:00-19:00; Sa 08:00-16:00",
    "id": 224
  },
  {
    "shop": "Coop",
    "name": "Coop",
    "address": "",
    "city": "",
    "plz": "",
    "lat": 47.4991969,
    "lng": 7.5544404,
    "phone": "",
    "hours": "Mo–Fr 08:00-19:00; Sa 07:30-18:00",
    "id": 225
  },
  {
    "shop": "Coop",
    "name": "Coop Zürich Hirzenbach",
    "address": "Hirzenbachstrasse 40",
    "city": "Zürich",
    "plz": "8051",
    "lat": 47.4034212,
    "lng": 8.5893605,
    "phone": "+41 44 273 93 60",
    "hours": "Mo–Sa 07:30-20:00",
    "id": 226
  },
  {
    "shop": "Coop",
    "name": "Coop Bern Papiermühlestrasse 85",
    "address": "Papiermühlestrasse 85",
    "city": "Bern",
    "plz": "3014",
    "lat": 46.9635406,
    "lng": 7.4651959,
    "phone": "",
    "hours": "Mo-Th 08:00-20:00; Fr 08:00-21:00; Sa 08:00-17:00; Su off",
    "id": 227
  },
  {
    "shop": "Coop",
    "name": "Coop Coop Pronto Bern Standstrasse",
    "address": "Standstrasse 42",
    "city": "Bern",
    "plz": "3014",
    "lat": 46.9628776,
    "lng": 7.4526798,
    "phone": "",
    "hours": "Mo-Su,PH 06:00-22:00",
    "id": 228
  },
  {
    "shop": "Coop",
    "name": "Coop",
    "address": "",
    "city": "",
    "plz": "",
    "lat": 47.1661545,
    "lng": 9.4731905,
    "phone": "",
    "hours": "Mo,Tu,Th 07:30-19:00; We,Fr 07:30-20:00; Sa 07:30-17:00",
    "id": 229
  },
  {
    "shop": "Coop",
    "name": "Coop Zürich Triemli",
    "address": "In der Ey 85",
    "city": "Zürich",
    "plz": "8047",
    "lat": 47.3702753,
    "lng": 8.4920191,
    "phone": "",
    "hours": "Mo–Sa 07:30-20:00",
    "id": 230
  },
  {
    "shop": "Coop",
    "name": "Coop",
    "address": "",
    "city": "",
    "plz": "",
    "lat": 47.334174,
    "lng": 8.025117,
    "phone": "",
    "hours": "",
    "id": 231
  },
  {
    "shop": "Coop",
    "name": "Coop Stansstad",
    "address": "Schützenmatte",
    "city": "Stansstad",
    "plz": "6362",
    "lat": 46.975581,
    "lng": 8.3417335,
    "phone": "+41 41 619 08 80",
    "hours": "Mo–Fr 07:30-19:00, Sa 07:30-18:00; PH off",
    "id": 232
  },
  {
    "shop": "Coop",
    "name": "Coop",
    "address": "",
    "city": "",
    "plz": "",
    "lat": 47.1669203,
    "lng": 9.46645,
    "phone": "",
    "hours": "Mo–Sa 05:30-22:00; Su 07:00-21:00",
    "id": 233
  },
  {
    "shop": "Coop",
    "name": "Coop City",
    "address": "Rue de Carouge 12",
    "city": "Genève",
    "plz": "",
    "lat": 46.1968712,
    "lng": 6.1425339,
    "phone": "",
    "hours": "Mo–Sa 08:00-19:00",
    "id": 234
  },
  {
    "shop": "Coop",
    "name": "Coop",
    "address": "",
    "city": "",
    "plz": "",
    "lat": 47.5148916,
    "lng": 7.5583452,
    "phone": "+41 61 406 99 50",
    "hours": "Mo–Sa 07:00-20:00",
    "id": 235
  },
  {
    "shop": "Coop",
    "name": "Coop",
    "address": "Pl. des Ormeaux 3",
    "city": "",
    "plz": "",
    "lat": 46.1903282,
    "lng": 6.1195706,
    "phone": "+41227075970",
    "hours": "Mo-We 07:30-19:00; Th 07:30-20:00; Fr 07:30-19:30; Sa 07:30-18:00",
    "id": 236
  },
  {
    "shop": "Coop",
    "name": "Coop",
    "address": "",
    "city": "",
    "plz": "",
    "lat": 46.1819051,
    "lng": 6.1203549,
    "phone": "",
    "hours": "Mo-We 07:30-19:00; Th 07:30-20:00; Fr 07:30-19:30; Sa 07:30-18:00",
    "id": 237
  },
  {
    "shop": "Coop",
    "name": "Coop Onex Rue des Bossons 17-19",
    "address": "Rue des Bossons 17-19",
    "city": "Onex",
    "plz": "1213",
    "lat": 46.187479,
    "lng": 6.1046981,
    "phone": "",
    "hours": "Mo-We 07:30-19:00; Th 07:30-21:00; Fr 07:30-19:30; Sa 07:30-18:00",
    "id": 238
  },
  {
    "shop": "Coop",
    "name": "Coop Altdorf Bahnhof",
    "address": "Bahnhofplatz 2",
    "city": "Altdorf UR",
    "plz": "6460",
    "lat": 46.8764999,
    "lng": 8.6313454,
    "phone": "",
    "hours": "Mo-Su 05:00-23:00",
    "id": 239
  },
  {
    "shop": "Coop",
    "name": "Coop Cham Seehof",
    "address": "Seehofstrasse 14",
    "city": "Cham",
    "plz": "6330",
    "lat": 47.1814359,
    "lng": 8.4617688,
    "phone": "",
    "hours": "Mo-Th 08:00-19:00; Fr 08:00-20:00; Sa 07:30-17:00; Su off",
    "id": 240
  },
  {
    "shop": "Coop",
    "name": "Coop",
    "address": "",
    "city": "",
    "plz": "",
    "lat": 46.7787752,
    "lng": 9.6773306,
    "phone": "",
    "hours": "Mo–Fr 08:00-19:00; Sa 08:00-18:00",
    "id": 241
  },
  {
    "shop": "Coop",
    "name": "Coop Dietlikon Bahnhofstrasse 41",
    "address": "Bahnhofstrasse 41",
    "city": "Dietlikon",
    "plz": "8305",
    "lat": 47.4219581,
    "lng": 8.6186754,
    "phone": "",
    "hours": "Mo–Sa 07:30-20:00",
    "id": 242
  },
  {
    "shop": "Coop",
    "name": "Coop Rolle Grand-Rue",
    "address": "Grand-Rue",
    "city": "Rolle",
    "plz": "1180",
    "lat": 46.4584039,
    "lng": 6.3378845,
    "phone": "",
    "hours": "",
    "id": 243
  },
  {
    "shop": "Coop",
    "name": "Coop Zürich Stauffacher",
    "address": "Badenerstrasse 15",
    "city": "Zürich",
    "plz": "8004",
    "lat": 47.3732882,
    "lng": 8.5305624,
    "phone": "+41 44 206 91 70",
    "hours": "Mo–Sa 08:00-22:00; PH off",
    "id": 244
  },
  {
    "shop": "Coop",
    "name": "Coop Zürich Albisrieden",
    "address": "Albisriederstrasse 334",
    "city": "Zürich",
    "plz": "8047",
    "lat": 47.3758541,
    "lng": 8.487038,
    "phone": "",
    "hours": "Mo–Sa 08:00-20:00",
    "id": 245
  },
  {
    "shop": "Coop",
    "name": "Coop Zürich Stettbach",
    "address": "Dübendorfstrasse 475",
    "city": "Zürich",
    "plz": "8051",
    "lat": 47.3972723,
    "lng": 8.5963102,
    "phone": "",
    "hours": "Mo-Su 06:00-23:00",
    "id": 246
  },
  {
    "shop": "Coop",
    "name": "Coop Steinhausen",
    "address": "Bahnhofstrasse 7",
    "city": "Steinhausen",
    "plz": "6312",
    "lat": 47.1963548,
    "lng": 8.4828142,
    "phone": "",
    "hours": "Mo-Th 07:30-19:00; Fr 07:30-21:00; Sa 07:30-17:00",
    "id": 247
  },
  {
    "shop": "Coop",
    "name": "Coop",
    "address": "",
    "city": "",
    "plz": "",
    "lat": 46.4901528,
    "lng": 9.8349925,
    "phone": "",
    "hours": "Mo-Th 08:00-19:00; Fr 08:00-20:00; Sa 08:00-18:00; Su 11:00-18:30",
    "id": 248
  },
  {
    "shop": "Coop",
    "name": "Coop",
    "address": "",
    "city": "",
    "plz": "",
    "lat": 47.4667122,
    "lng": 8.3250377,
    "phone": "",
    "hours": "Mo–Sa 06:00-23:00; Su 07:00-22:00",
    "id": 249
  },
  {
    "shop": "Coop",
    "name": "Coop",
    "address": "",
    "city": "",
    "plz": "",
    "lat": 46.9410888,
    "lng": 7.4313753,
    "phone": "+41 31 370 1130",
    "hours": "Mo–Fr 07:00-20:00; Sa 07:00-17:00; Su off; PH off",
    "id": 250
  },
  {
    "shop": "Coop",
    "name": "Coop Wald ZH Bahnhofstrasse 33",
    "address": "Bahnhofstrasse 33",
    "city": "Wald ZH",
    "plz": "8636",
    "lat": 47.2737527,
    "lng": 8.914786,
    "phone": "",
    "hours": "Mo–Sa 07:30-20:00",
    "id": 251
  },
  {
    "shop": "Coop",
    "name": "Coop",
    "address": "",
    "city": "",
    "plz": "",
    "lat": 47.2032898,
    "lng": 7.5588771,
    "phone": "+41 32 686 81 50",
    "hours": "Mo–Fr 07:00-18:30; Sa 07:30-17:00",
    "id": 252
  },
  {
    "shop": "Coop",
    "name": "Coop Luzern Schlossberg",
    "address": "Maihofstrasse 1",
    "city": "Luzern",
    "plz": "6006",
    "lat": 47.0614224,
    "lng": 8.3083616,
    "phone": "+41 41 367 09 70;+41 41 420 98 08",
    "hours": "Mo–Fr 07:30-18:30; Sa 07:30-16:00",
    "id": 253
  },
  {
    "shop": "Coop",
    "name": "Coop Altdorf",
    "address": "Hellgasse 3",
    "city": "Altdorf UR",
    "plz": "6460",
    "lat": 46.8809204,
    "lng": 8.6454171,
    "phone": "",
    "hours": "Mo-Th 07:30-18:30; Fr 07:30-21:00; Sa 07:30-17:00; PH off",
    "id": 254
  },
  {
    "shop": "Coop",
    "name": "Coop",
    "address": "Bahnhofplatz 6",
    "city": "",
    "plz": "3920",
    "lat": 46.0235437,
    "lng": 7.7484443,
    "phone": "",
    "hours": "Mo-Su 08:00-20:00",
    "id": 255
  },
  {
    "shop": "Coop",
    "name": "Coop Genève Avenue du Devin-du-Village 1",
    "address": "Avenue du Devin-du-Village 1",
    "city": "Genève",
    "plz": "1203",
    "lat": 46.2040409,
    "lng": 6.1245627,
    "phone": "",
    "hours": "Mo-We 07:30-19:00; Th 07:30-20:00; Fr 07:30-19:30; Sa 07:30-18:00",
    "id": 256
  },
  {
    "shop": "Coop",
    "name": "Coop",
    "address": "",
    "city": "",
    "plz": "",
    "lat": 46.1691,
    "lng": 8.7946582,
    "phone": "",
    "hours": "Mo–Fr 08:00-19:00; Sa 08:00-18:30",
    "id": 257
  },
  {
    "shop": "Coop",
    "name": "Coop",
    "address": "",
    "city": "",
    "plz": "",
    "lat": 46.0673644,
    "lng": 7.7761025,
    "phone": "",
    "hours": "Mo–Sa 08:00-18:30; Su 16:00-18:30",
    "id": 258
  },
  {
    "shop": "Coop",
    "name": "Coop",
    "address": "Rue de Montchoisy 35",
    "city": "",
    "plz": "1207",
    "lat": 46.204328,
    "lng": 6.1619852,
    "phone": "+41227370680",
    "hours": "Mo-We 07:30-19:00; Th 07:30-20:00; Fr 07:30-19:30; Sa 07:30-18:00",
    "id": 259
  },
  {
    "shop": "Coop",
    "name": "Coop Basel Spalemärt",
    "address": "",
    "city": "",
    "plz": "",
    "lat": 47.5606982,
    "lng": 7.575696,
    "phone": "",
    "hours": "Mo–Fr 07:30-20:00;Sa 07:30-18:00;PH off",
    "id": 260
  },
  {
    "shop": "Coop",
    "name": "Coop Basel Güterstrasse",
    "address": "",
    "city": "",
    "plz": "",
    "lat": 47.5419727,
    "lng": 7.5977902,
    "phone": "",
    "hours": "Mo–Sa 06:00-22:00, Su 08:00-22:00",
    "id": 261
  },
  {
    "shop": "Coop",
    "name": "Coop Basel Vogesenplatz 10",
    "address": "Vogesenplatz 10",
    "city": "Basel",
    "plz": "4056",
    "lat": 47.5705577,
    "lng": 7.5733861,
    "phone": "",
    "hours": "Mo–Fr 07:30-20:00; Sa 07:30-18:00",
    "id": 262
  },
  {
    "shop": "Coop",
    "name": "Coop Schaffhausen",
    "address": "Vordergasse 69",
    "city": "Schaffhausen",
    "plz": "8200",
    "lat": 47.6962496,
    "lng": 8.6346332,
    "phone": "",
    "hours": "Mo–Fr 08:30-19:00; Th 08:30-20:00; Sa 08:00-18:00; Su,PH off",
    "id": 263
  },
  {
    "shop": "Coop",
    "name": "Coop Winterthur Stadtgarten",
    "address": "Bankstrasse 8/12",
    "city": "Winterthur",
    "plz": "8400",
    "lat": 47.5008483,
    "lng": 8.7259378,
    "phone": "",
    "hours": "Mo–Fr 08:30-20:00; Sa 08:00-20:00",
    "id": 264
  },
  {
    "shop": "Coop",
    "name": "Coop Vernier Rue du Village 28",
    "address": "Rue du Village 28",
    "city": "Vernier",
    "plz": "",
    "lat": 46.2145319,
    "lng": 6.0829705,
    "phone": "",
    "hours": "Mo-We 08:00-19:00; Th 08:00-20:00; Fr 08:00-19:30; Sa 08:00-18:00; Su off",
    "id": 265
  },
  {
    "shop": "Coop",
    "name": "Coop",
    "address": "",
    "city": "",
    "plz": "",
    "lat": 47.5659947,
    "lng": 7.5621322,
    "phone": "",
    "hours": "Mo–Fr 07:30-19:00; Sa 07:30-18:00",
    "id": 266
  },
  {
    "shop": "Coop",
    "name": "Coop Basel Elsässerstrasse 36",
    "address": "Elsässerstrasse 36",
    "city": "Basel",
    "plz": "4056",
    "lat": 47.5690946,
    "lng": 7.5796433,
    "phone": "",
    "hours": "Mo–Fr 07:30-20:00; Sa 07:30-18:00",
    "id": 267
  },
  {
    "shop": "Coop",
    "name": "Coop Giswil",
    "address": "Brünigstrasse 42",
    "city": "Giswil",
    "plz": "6074",
    "lat": 46.837599,
    "lng": 8.1860203,
    "phone": "",
    "hours": "Mo–Fr 07:00-19:00; Sa 07:00-18:00",
    "id": 268
  },
  {
    "shop": "Coop",
    "name": "Coop",
    "address": "",
    "city": "",
    "plz": "",
    "lat": 46.1750373,
    "lng": 8.8548613,
    "phone": "",
    "hours": "Mo–Fr 08:00-19:00; Th 08:00-21:00; Sa 08:00-18:30",
    "id": 269
  },
  {
    "shop": "Coop",
    "name": "Coop Gümligen Turbenweg 1",
    "address": "Turbenweg 1",
    "city": "Gümligen",
    "plz": "3073",
    "lat": 46.9333836,
    "lng": 7.5036085,
    "phone": "+41 58 567 79 00",
    "hours": "Mo-Th 08:00-19:00; Fr 08:00-21:00; Sa 08:00-17:00",
    "id": 270
  },
  {
    "shop": "Coop",
    "name": "Coop",
    "address": "",
    "city": "",
    "plz": "",
    "lat": 46.4823269,
    "lng": 6.774769,
    "phone": "",
    "hours": "Mo–Fr 07:30-19:00; Sa 07:30-18:00",
    "id": 271
  },
  {
    "shop": "Coop",
    "name": "Coop Meilen Dorfstrasse 140",
    "address": "Dorfstrasse 140",
    "city": "Meilen",
    "plz": "8706",
    "lat": 47.2686992,
    "lng": 8.6463179,
    "phone": "",
    "hours": "Mo–Sa 07:00-20:00",
    "id": 272
  },
  {
    "shop": "Coop",
    "name": "Coop Ebnat-Kappel Gillstrasse 2",
    "address": "Gillstrasse 2",
    "city": "Ebnat-Kappel",
    "plz": "9642",
    "lat": 47.2655316,
    "lng": 9.1213782,
    "phone": "",
    "hours": "",
    "id": 273
  },
  {
    "shop": "Coop",
    "name": "Coop Dagmersellen Luzernerstrasse 6",
    "address": "Luzernerstrasse 6",
    "city": "Dagmersellen",
    "plz": "6252",
    "lat": 47.2121507,
    "lng": 7.9903016,
    "phone": "+41 62 748 70 80",
    "hours": "",
    "id": 274
  },
  {
    "shop": "Coop",
    "name": "Coop",
    "address": "",
    "city": "",
    "plz": "",
    "lat": 45.9735732,
    "lng": 8.8795853,
    "phone": "",
    "hours": "",
    "id": 275
  },
  {
    "shop": "Coop",
    "name": "Coop",
    "address": "",
    "city": "",
    "plz": "",
    "lat": 46.1034428,
    "lng": 7.0771825,
    "phone": "",
    "hours": "Mo-Th 08:15-18:30; Fr 08:15-20:00; Sa 08:00-17:00",
    "id": 276
  },
  {
    "shop": "Coop",
    "name": "Coop",
    "address": "",
    "city": "",
    "plz": "",
    "lat": 47.3270663,
    "lng": 8.6015768,
    "phone": "",
    "hours": "Mo–Sa 07:30-20:00",
    "id": 277
  },
  {
    "shop": "Coop",
    "name": "Coop Lausanne Rue de la Pontaise 14",
    "address": "Rue de la Pontaise 14",
    "city": "Lausanne",
    "plz": "1018",
    "lat": 46.5293757,
    "lng": 6.6305889,
    "phone": "+41 21 333 51 90",
    "hours": "Mo–Fr 08:00-19:00; Sa 08:00-18:00",
    "id": 278
  },
  {
    "shop": "Coop",
    "name": "Coop",
    "address": "",
    "city": "",
    "plz": "",
    "lat": 47.3085901,
    "lng": 8.0512777,
    "phone": "",
    "hours": "Mo–Sa 07:30-20:00",
    "id": 279
  },
  {
    "shop": "Coop",
    "name": "Coop Zürich Sophie-Taeuber-Strasse 4",
    "address": "Sophie-Taeuber-Strasse 4",
    "city": "Zürich",
    "plz": "8050",
    "lat": 47.4134214,
    "lng": 8.5405759,
    "phone": "+41 44 315 32 20",
    "hours": "Mo–Sa 07:30-21:00",
    "id": 280
  },
  {
    "shop": "Coop",
    "name": "Coop Madiswil",
    "address": "",
    "city": "",
    "plz": "",
    "lat": 47.1659419,
    "lng": 7.7983431,
    "phone": "",
    "hours": "",
    "id": 281
  },
  {
    "shop": "Coop",
    "name": "Coop Le Grand-Saconnex Chemin Edouard-Sarasin 28",
    "address": "Chemin Edouard-Sarasin 28",
    "city": "Le Grand-Saconnex",
    "plz": "",
    "lat": 46.2311036,
    "lng": 6.1188733,
    "phone": "",
    "hours": "Mo-We 07:30-19:00; Th 07:30-20:00; Fr 07:30-19:30; Sa 07:30-18:00",
    "id": 282
  },
  {
    "shop": "Coop",
    "name": "Coop",
    "address": "",
    "city": "",
    "plz": "",
    "lat": 46.6980032,
    "lng": 7.1402157,
    "phone": "",
    "hours": "Mo-Th 07:00-19:00; Fr 07:00-20:00; Sa 07:00-16:00",
    "id": 283
  },
  {
    "shop": "Coop",
    "name": "Coop Malvaglia Via Campagnora 16",
    "address": "Via Campagnora 16",
    "city": "Malvaglia",
    "plz": "6713",
    "lat": 46.412393,
    "lng": 8.9774825,
    "phone": "+41 91 9145090",
    "hours": "Mo–Fr 07:30-19:00; Sa 07:30-18:30",
    "id": 284
  },
  {
    "shop": "Coop",
    "name": "Coop Genève Avenue d'Aïre 100",
    "address": "Avenue d'Aïre 100",
    "city": "Genève",
    "plz": "",
    "lat": 46.2061895,
    "lng": 6.1162444,
    "phone": "",
    "hours": "Mo-We 07:30-19:00; Th 07:30-20:00; Fr 07:30-19:30; Sa 07:30-18:00",
    "id": 285
  },
  {
    "shop": "Coop",
    "name": "Coop",
    "address": "",
    "city": "",
    "plz": "",
    "lat": 47.3066083,
    "lng": 8.8179159,
    "phone": "",
    "hours": "Mo–Sa 08:00-20:00; PH off",
    "id": 286
  },
  {
    "shop": "Coop",
    "name": "Coop",
    "address": "",
    "city": "",
    "plz": "",
    "lat": 47.4665225,
    "lng": 8.2913427,
    "phone": "",
    "hours": "Mo-Su 06:00-23:00",
    "id": 287
  },
  {
    "shop": "Coop",
    "name": "Coop",
    "address": "",
    "city": "",
    "plz": "",
    "lat": 46.8766449,
    "lng": 7.0328146,
    "phone": "",
    "hours": "",
    "id": 288
  },
  {
    "shop": "Coop",
    "name": "Coop",
    "address": "Via Municipio",
    "city": "",
    "plz": "",
    "lat": 46.1751136,
    "lng": 8.8123086,
    "phone": "+41917591080",
    "hours": "Mo–Fr 08:00-19:00; Sa 08:00-18:30",
    "id": 289
  },
  {
    "shop": "Coop",
    "name": "Coop Losone Via Mezzana 30",
    "address": "Via Mezzana 30",
    "city": "Losone",
    "plz": "6616",
    "lat": 46.1673272,
    "lng": 8.7624523,
    "phone": "",
    "hours": "",
    "id": 290
  },
  {
    "shop": "Coop",
    "name": "Coop",
    "address": "",
    "city": "",
    "plz": "",
    "lat": 46.1693347,
    "lng": 8.7811263,
    "phone": "",
    "hours": "",
    "id": 291
  },
  {
    "shop": "Coop",
    "name": "Coop",
    "address": "",
    "city": "",
    "plz": "",
    "lat": 46.3338275,
    "lng": 6.8904907,
    "phone": "",
    "hours": "Mo-Th 07:30-18:30; Fr 07:30-19:30; Sa 07:30-17:00; Su,PH closed",
    "id": 292
  },
  {
    "shop": "Coop",
    "name": "Coop",
    "address": "",
    "city": "",
    "plz": "",
    "lat": 46.8503358,
    "lng": 7.1907932,
    "phone": "",
    "hours": "Mo-Th 08:00-19:00;Fr 08:00-20:00;Sa 08:00-16:00;Su off",
    "id": 293
  },
  {
    "shop": "Coop",
    "name": "Coop",
    "address": "",
    "city": "",
    "plz": "",
    "lat": 46.9493318,
    "lng": 7.4402404,
    "phone": "",
    "hours": "",
    "id": 294
  },
  {
    "shop": "Coop",
    "name": "Coop",
    "address": "",
    "city": "",
    "plz": "",
    "lat": 46.8897421,
    "lng": 7.3142468,
    "phone": "",
    "hours": "",
    "id": 295
  },
  {
    "shop": "Coop",
    "name": "Coop",
    "address": "",
    "city": "",
    "plz": "",
    "lat": 46.8158114,
    "lng": 7.2167431,
    "phone": "",
    "hours": "",
    "id": 296
  },
  {
    "shop": "Coop",
    "name": "Coop",
    "address": "",
    "city": "",
    "plz": "",
    "lat": 46.6998807,
    "lng": 10.0935563,
    "phone": "",
    "hours": "Mo–Fr 08:00-12:30,14:00-18:30; Sa 08:00-17:00; Su,PH off",
    "id": 297
  },
  {
    "shop": "Coop",
    "name": "Coop",
    "address": "",
    "city": "",
    "plz": "",
    "lat": 46.9405621,
    "lng": 7.7783322,
    "phone": "",
    "hours": "Mo-Th 08:00-19:00; Fr 08:00-21:00; Sa 07:30-17:00",
    "id": 298
  },
  {
    "shop": "Coop",
    "name": "Coop Zürich Klusplatz",
    "address": "Witikonerstrasse 15",
    "city": "Zürich",
    "plz": "8032",
    "lat": 47.3639891,
    "lng": 8.5670756,
    "phone": "",
    "hours": "Mo–Sa 06:00-23:00",
    "id": 299
  },
  {
    "shop": "Coop",
    "name": "Coop Yvonand Grand'Rue 16",
    "address": "Grand'Rue 16",
    "city": "Yvonand",
    "plz": "1462",
    "lat": 46.7999002,
    "lng": 6.7453686,
    "phone": "",
    "hours": "Tu-Fr 07:30-18:30; Sa 07:30-17:00",
    "id": 300
  },
  {
    "shop": "Coop",
    "name": "Coop Airolo Via San Gottardo 41",
    "address": "Via San Gottardo 41",
    "city": "Airolo",
    "plz": "6780",
    "lat": 46.5283611,
    "lng": 8.610678,
    "phone": "",
    "hours": "Mo–Fr 08:00-12:30, 14:00-19:00; Sa 08:00-18:30",
    "id": 301
  },
  {
    "shop": "Coop",
    "name": "Coop",
    "address": "",
    "city": "",
    "plz": "",
    "lat": 47.3654237,
    "lng": 7.1551713,
    "phone": "+41 32 344 36 30",
    "hours": "Mo–Fr 07:30-18:30; Sa 07:30-17:00",
    "id": 302
  },
  {
    "shop": "Coop",
    "name": "Coop Schaffhausen Riet",
    "address": "",
    "city": "",
    "plz": "",
    "lat": 47.7039544,
    "lng": 8.6155171,
    "phone": "+41 52 630 07 70",
    "hours": "Mo–Fr 08:00-19:00; Sa 08:00-18:00; Su off",
    "id": 303
  },
  {
    "shop": "Coop",
    "name": "Coop Lausanne Avenue du Parc-de-la-Rouvraie 3",
    "address": "Avenue du Parc-de-la-Rouvraie 3",
    "city": "Lausanne",
    "plz": "1018",
    "lat": 46.5308968,
    "lng": 6.6345902,
    "phone": "",
    "hours": "Mo–Fr 07:30-19:00; Sa 07:30-18:00",
    "id": 304
  },
  {
    "shop": "Coop",
    "name": "Coop",
    "address": "",
    "city": "",
    "plz": "",
    "lat": 47.5226205,
    "lng": 7.690654,
    "phone": "",
    "hours": "Mo-Su,PH 05:00-23:00",
    "id": 305
  },
  {
    "shop": "Coop",
    "name": "Coop",
    "address": "",
    "city": "",
    "plz": "",
    "lat": 46.7618198,
    "lng": 6.8904797,
    "phone": "",
    "hours": "",
    "id": 306
  },
  {
    "shop": "Coop",
    "name": "Coop",
    "address": "",
    "city": "",
    "plz": "",
    "lat": 46.1248107,
    "lng": 7.9370751,
    "phone": "",
    "hours": "Mo–Sa 08:00-18:30; Su 15:00-18:30",
    "id": 307
  },
  {
    "shop": "Coop",
    "name": "Coop Olten",
    "address": "Baslerstrasse 10",
    "city": "Olten",
    "plz": "4600",
    "lat": 47.3505367,
    "lng": 7.9028726,
    "phone": "",
    "hours": "Mo-We,Fr 08:30-18:30; Th 08:30-20:00; Sa 08:30-18:00",
    "id": 308
  },
  {
    "shop": "Coop",
    "name": "Coop",
    "address": "Rue de la Gare 24",
    "city": "",
    "plz": "",
    "lat": 47.2096404,
    "lng": 6.9998959,
    "phone": "",
    "hours": "",
    "id": 309
  },
  {
    "shop": "Coop",
    "name": "Coop",
    "address": "",
    "city": "",
    "plz": "",
    "lat": 46.2965697,
    "lng": 7.5504487,
    "phone": "",
    "hours": "",
    "id": 310
  },
  {
    "shop": "Coop",
    "name": "Coop",
    "address": "",
    "city": "",
    "plz": "",
    "lat": 46.3230381,
    "lng": 7.9892174,
    "phone": "",
    "hours": "",
    "id": 311
  },
  {
    "shop": "Coop",
    "name": "Coop Seon Unterdorfstrasse 18",
    "address": "Unterdorfstrasse 18",
    "city": "Seon",
    "plz": "5703",
    "lat": 47.3476817,
    "lng": 8.1616576,
    "phone": "+41 62 769 62 30",
    "hours": "Mo–Fr: 07:30-20:00, Sa: 07:30-18:00",
    "id": 312
  },
  {
    "shop": "Coop",
    "name": "Coop Rennaz Riviera",
    "address": "",
    "city": "",
    "plz": "",
    "lat": 46.3838712,
    "lng": 6.9241754,
    "phone": "",
    "hours": "Mo-Th 07:30-19:30, Fr 07:30-20:00, Sa 07:30-18:00; PH off",
    "id": 313
  },
  {
    "shop": "Coop",
    "name": "Coop Meyrin Route de Meyrin",
    "address": "Route de Meyrin",
    "city": "Meyrin",
    "plz": "1217",
    "lat": 46.2285104,
    "lng": 6.0725738,
    "phone": "+41 22 404 5040",
    "hours": "Mo-We 07:30-19:00; Th 07:30-20:00; Fr 07:30-19:30; Sa 07:30-18:00",
    "id": 314
  },
  {
    "shop": "Coop",
    "name": "Coop",
    "address": "",
    "city": "",
    "plz": "3600",
    "lat": 46.757382,
    "lng": 7.629943,
    "phone": "+41 33 655 36 20",
    "hours": "Mo-We, Fr 07:00-19:00; Th 07:00-20:00; Sa 07:00-17:00",
    "id": 315
  },
  {
    "shop": "Coop",
    "name": "Coop Supermarkt Ebmatingen Getränkemarkt",
    "address": "",
    "city": "",
    "plz": "",
    "lat": 47.3512297,
    "lng": 8.6423169,
    "phone": "",
    "hours": "Mo-We,Fr,Sa 07:30-20:00",
    "id": 316
  },
  {
    "shop": "Coop",
    "name": "Coop Brugg Neumarkt",
    "address": "",
    "city": "Brugg AG",
    "plz": "",
    "lat": 47.4817627,
    "lng": 8.2087864,
    "phone": "",
    "hours": "",
    "id": 317
  },
  {
    "shop": "Coop",
    "name": "Coop",
    "address": "",
    "city": "",
    "plz": "",
    "lat": 46.6853834,
    "lng": 7.8558964,
    "phone": "",
    "hours": "Mo-Su 07:00-22:30",
    "id": 318
  },
  {
    "shop": "Coop",
    "name": "Coop",
    "address": "",
    "city": "",
    "plz": "",
    "lat": 47.3469908,
    "lng": 7.9087056,
    "phone": "",
    "hours": "Mo-We,Fr 07:00-18:30; Th 07:00-20:00; Sa 07:00-18:00",
    "id": 319
  },
  {
    "shop": "Coop",
    "name": "Coop",
    "address": "",
    "city": "",
    "plz": "",
    "lat": 46.8162989,
    "lng": 9.2670107,
    "phone": "",
    "hours": "Mo-Su 06:00-22:00",
    "id": 320
  },
  {
    "shop": "Coop",
    "name": "Coop",
    "address": "",
    "city": "",
    "plz": "",
    "lat": 46.5227215,
    "lng": 6.6302822,
    "phone": "",
    "hours": "Mo–Fr 08:00-19:00; Sa 07:00-18:00",
    "id": 321
  },
  {
    "shop": "Coop",
    "name": "Coop",
    "address": "Place Chauderon 3",
    "city": "",
    "plz": "1003",
    "lat": 46.5230603,
    "lng": 6.6262512,
    "phone": "+41 21 329 15 86",
    "hours": "Mo-Su 06:00-22:00",
    "id": 322
  },
  {
    "shop": "Coop",
    "name": "Coop",
    "address": "",
    "city": "",
    "plz": "",
    "lat": 46.3981642,
    "lng": 6.925489,
    "phone": "",
    "hours": "",
    "id": 323
  },
  {
    "shop": "Coop",
    "name": "Coop",
    "address": "",
    "city": "",
    "plz": "",
    "lat": 47.3607025,
    "lng": 8.0522798,
    "phone": "",
    "hours": "Mo–Fr 08:00-20:00; Sa 07:30-20:00; PH closed",
    "id": 324
  },
  {
    "shop": "Coop",
    "name": "Coop Belp Schützenweg 3",
    "address": "Schützenweg 3",
    "city": "Belp",
    "plz": "3123",
    "lat": 46.8933861,
    "lng": 7.4975955,
    "phone": "",
    "hours": "Mo-Th 08:00-19:00; Fr 08:00-20:00; Sa 08:00-17:00",
    "id": 325
  },
  {
    "shop": "Coop",
    "name": "Coop Gebenstorf Geeligstrasse",
    "address": "Geeligstrasse",
    "city": "Gebenstorf",
    "plz": "5412",
    "lat": 47.4896179,
    "lng": 8.2449485,
    "phone": "",
    "hours": "Mo–Fr 08:00-20:00; Sa 07:30-18:00",
    "id": 326
  },
  {
    "shop": "Coop",
    "name": "Coop Zürich Dorflinde",
    "address": "",
    "city": "",
    "plz": "",
    "lat": 47.407567,
    "lng": 8.5491079,
    "phone": "",
    "hours": "Mo–Sa 07:00-20:00",
    "id": 327
  },
  {
    "shop": "Coop",
    "name": "Coop",
    "address": "",
    "city": "",
    "plz": "",
    "lat": 46.3119413,
    "lng": 7.4839626,
    "phone": "",
    "hours": "Mo-Su 08:00-19:00",
    "id": 328
  },
  {
    "shop": "Coop",
    "name": "Coop Davos Platz Talstrasse 28e",
    "address": "Talstrasse 28e",
    "city": "Davos Platz",
    "plz": "7270",
    "lat": 46.7976365,
    "lng": 9.8279292,
    "phone": "",
    "hours": "Mo-Su 06:00-22:00",
    "id": 329
  },
  {
    "shop": "Coop",
    "name": "Coop Thun Schönaustrasse 18",
    "address": "Schönaustrasse 18",
    "city": "Thun",
    "plz": "3600",
    "lat": 46.7535745,
    "lng": 7.6150975,
    "phone": "",
    "hours": "",
    "id": 330
  },
  {
    "shop": "Coop",
    "name": "Coop",
    "address": "",
    "city": "",
    "plz": "",
    "lat": 47.133059,
    "lng": 7.2427131,
    "phone": "+41 32 322 8870",
    "hours": "Mo-Su 05:00-24:00",
    "id": 331
  },
  {
    "shop": "Coop",
    "name": "Coop Supermarkt Oberriet",
    "address": "Bahnhofstrasse 2",
    "city": "Oberriet SG",
    "plz": "9463",
    "lat": 47.3235181,
    "lng": 9.5689044,
    "phone": "+41 71 763 70 90",
    "hours": "Mo-Th 07:30-19:00; Fr 07:30-20:00; Sa 07:30-17:00",
    "id": 332
  },
  {
    "shop": "Coop",
    "name": "Coop Genève Avenue de Champel 8c",
    "address": "Avenue de Champel 8c",
    "city": "Genève",
    "plz": "",
    "lat": 46.1946669,
    "lng": 6.1524505,
    "phone": "",
    "hours": "Mo-We 08:00-19:00, Th 08:00-20:00, Fr 08:00-19:30, Sa 08:00-18:00, Su off",
    "id": 333
  },
  {
    "shop": "Coop",
    "name": "Coop",
    "address": "Sandstrasse 8",
    "city": "",
    "plz": "",
    "lat": 47.0184251,
    "lng": 7.5007399,
    "phone": "+41 31 850 40 50",
    "hours": "Mo-Th 08:00-19:00; Fr 08:00-21:00; Sa 08:00-17:00; Su off",
    "id": 334
  },
  {
    "shop": "Coop",
    "name": "Coop Reinach AG",
    "address": "Obere Stumpenbachstrasse 10",
    "city": "Reinach AG",
    "plz": "5734",
    "lat": 47.2516626,
    "lng": 8.1821425,
    "phone": "+41 62 765 63 33",
    "hours": "Mo-We 07:30-19:00; Th-Sa 07:30-20:00",
    "id": 335
  },
  {
    "shop": "Coop",
    "name": "Coop",
    "address": "",
    "city": "",
    "plz": "",
    "lat": 46.1802002,
    "lng": 6.1279232,
    "phone": "",
    "hours": "Mo-We 08:30-19:00; Th 08:30-21:00; Fr 08:30-19:30; Sa 08:30-18:00",
    "id": 336
  },
  {
    "shop": "Coop",
    "name": "Coop",
    "address": "Rue Voltaire 18",
    "city": "",
    "plz": "1201",
    "lat": 46.2079804,
    "lng": 6.1372916,
    "phone": "",
    "hours": "Mo-We 07:00-19:00; Th 07:00-20:00; Fr 07:00-19:30; Sa 07:00-18:00",
    "id": 337
  },
  {
    "shop": "Coop",
    "name": "Coop Adliswil Poststrasse 3",
    "address": "Poststrasse 3",
    "city": "Adliswil",
    "plz": "8134",
    "lat": 47.3129515,
    "lng": 8.5251993,
    "phone": "",
    "hours": "Mo–Sa 07:30-20:00",
    "id": 338
  },
  {
    "shop": "Coop",
    "name": "Coop",
    "address": "",
    "city": "",
    "plz": "",
    "lat": 46.5985698,
    "lng": 7.907353,
    "phone": "",
    "hours": "Mo–Sa 08:00-19:00",
    "id": 339
  },
  {
    "shop": "Coop",
    "name": "Coop",
    "address": "Blattenstrasse 2",
    "city": "",
    "plz": "",
    "lat": 47.2532311,
    "lng": 8.7734457,
    "phone": "",
    "hours": "Mo–Sa 08:00-20:00; Su off",
    "id": 340
  },
  {
    "shop": "Coop",
    "name": "Coop",
    "address": "",
    "city": "",
    "plz": "",
    "lat": 46.5152376,
    "lng": 6.6313853,
    "phone": "",
    "hours": "Mo–Fr 07:30-19:00; Sa 07:30-18:00",
    "id": 341
  },
  {
    "shop": "Coop",
    "name": "Coop Unterägeri",
    "address": "Waldheimstrasse 2",
    "city": "Unterägeri",
    "plz": "6314",
    "lat": 47.1378292,
    "lng": 8.5812784,
    "phone": "",
    "hours": "",
    "id": 342
  },
  {
    "shop": "Coop",
    "name": "Coop Zürich Witikon",
    "address": "Witikonerstrasse 409",
    "city": "Zürich",
    "plz": "8053",
    "lat": 47.3602011,
    "lng": 8.5947159,
    "phone": "",
    "hours": "Mo–Sa 07:00-21:00",
    "id": 343
  },
  {
    "shop": "Coop",
    "name": "Coop",
    "address": "",
    "city": "",
    "plz": "",
    "lat": 47.2569212,
    "lng": 6.9993287,
    "phone": "",
    "hours": "",
    "id": 344
  },
  {
    "shop": "Coop",
    "name": "Coop Studen BE Hauptstrasse 65",
    "address": "Hauptstrasse 65",
    "city": "Studen BE",
    "plz": "2557",
    "lat": 47.1125788,
    "lng": 7.3011413,
    "phone": "",
    "hours": "Mo–Fr 07:00-18:45; Sa 07:00-17:00; PH off",
    "id": 345
  },
  {
    "shop": "Coop",
    "name": "Coop",
    "address": "",
    "city": "",
    "plz": "",
    "lat": 47.3059156,
    "lng": 8.7574256,
    "phone": "",
    "hours": "Mo–Sa 07:30-20:00; PH off",
    "id": 346
  },
  {
    "shop": "Coop",
    "name": "Coop Zürich Mühlackerstrasse",
    "address": "Mühlackerstrasse 199",
    "city": "Zürich",
    "plz": "8046",
    "lat": 47.4256283,
    "lng": 8.4969763,
    "phone": "",
    "hours": "Mo–Sa 08:00-20:00",
    "id": 347
  },
  {
    "shop": "Coop",
    "name": "Coop Lausanne Chissiez",
    "address": "Chemin des Faverges 15",
    "city": "Lausanne",
    "plz": "1006",
    "lat": 46.5139141,
    "lng": 6.6471599,
    "phone": "",
    "hours": "Mo–Fr 07:30-19:00, Sa 07:30-18:00",
    "id": 348
  },
  {
    "shop": "Coop",
    "name": "Coop Thalwil",
    "address": "Seestrasse 67",
    "city": "Thalwil",
    "plz": "8800",
    "lat": 47.2887198,
    "lng": 8.5739823,
    "phone": "",
    "hours": "",
    "id": 349
  },
  {
    "shop": "Coop",
    "name": "Coop Au Wädenswil",
    "address": "Alte Landstrasse 26",
    "city": "Au",
    "plz": "8804",
    "lat": 47.2421864,
    "lng": 8.6556101,
    "phone": "",
    "hours": "Mo–Sa 07:30-20:00",
    "id": 350
  },
  {
    "shop": "Coop",
    "name": "Coop Luzern Winkelried",
    "address": "Winkelriedstrasse 56",
    "city": "Luzern",
    "plz": "6003",
    "lat": 47.0465392,
    "lng": 8.3068307,
    "phone": "",
    "hours": "Mo-We,Fr 07:00-19:00; Th 07:00-20:00; Sa 07:00-17:00; PH,Su off",
    "id": 351
  },
  {
    "shop": "Coop",
    "name": "Coop",
    "address": "",
    "city": "",
    "plz": "",
    "lat": 46.7792559,
    "lng": 9.5441326,
    "phone": "",
    "hours": "Mo–Fr 08:00-19:00; Sa 08:00-18:00; Su 09:00-18:00",
    "id": 352
  },
  {
    "shop": "Coop",
    "name": "Coop Horw",
    "address": "Kantonsstrasse 100",
    "city": "Horw",
    "plz": "6048",
    "lat": 47.0196454,
    "lng": 8.3106581,
    "phone": "",
    "hours": "",
    "id": 353
  },
  {
    "shop": "Coop",
    "name": "Coop",
    "address": "",
    "city": "",
    "plz": "",
    "lat": 46.8074396,
    "lng": 9.8377817,
    "phone": "",
    "hours": "Mo-Su 06:00-22:00",
    "id": 354
  },
  {
    "shop": "Coop",
    "name": "Coop",
    "address": "",
    "city": "",
    "plz": "",
    "lat": 47.3501898,
    "lng": 8.2703578,
    "phone": "",
    "hours": "",
    "id": 355
  },
  {
    "shop": "Coop",
    "name": "Coop",
    "address": "",
    "city": "",
    "plz": "",
    "lat": 47.5596693,
    "lng": 8.0601215,
    "phone": "",
    "hours": "Mo–Fr 08:00-19:00; Sa 08:00-18:00",
    "id": 356
  },
  {
    "shop": "Coop",
    "name": "Coop Heiden Rosentalstrasse 2",
    "address": "Rosentalstrasse 2",
    "city": "Heiden",
    "plz": "9410",
    "lat": 47.4436367,
    "lng": 9.5317965,
    "phone": "+41 71 898 03 80",
    "hours": "Mo-Th 07:30-19:00; Fr 07:30-20:00; Sa 07:30-18:00",
    "id": 357
  },
  {
    "shop": "Coop",
    "name": "Coop",
    "address": "",
    "city": "",
    "plz": "",
    "lat": 47.5584264,
    "lng": 7.5601118,
    "phone": "",
    "hours": "Mo–Fr 07:30-19:00; Sa 07:30-18:00",
    "id": 358
  },
  {
    "shop": "Coop",
    "name": "Coop Kerns Dorfstrasse 12",
    "address": "Dorfstrasse 12",
    "city": "Kerns",
    "plz": "6064",
    "lat": 46.9012844,
    "lng": 8.2757488,
    "phone": "",
    "hours": "",
    "id": 359
  },
  {
    "shop": "Coop",
    "name": "Coop",
    "address": "",
    "city": "",
    "plz": "",
    "lat": 47.6506092,
    "lng": 9.1726711,
    "phone": "",
    "hours": "",
    "id": 360
  },
  {
    "shop": "Coop",
    "name": "Coop",
    "address": "",
    "city": "",
    "plz": "",
    "lat": 46.1625339,
    "lng": 9.9664554,
    "phone": "",
    "hours": "",
    "id": 361
  },
  {
    "shop": "Coop",
    "name": "Coop Luzern Hubelmatt",
    "address": "Breitenlachenstrasse 20",
    "city": "Luzern",
    "plz": "6005",
    "lat": 47.0372758,
    "lng": 8.3084669,
    "phone": "",
    "hours": "",
    "id": 362
  },
  {
    "shop": "Coop",
    "name": "Coop Caroline",
    "address": "",
    "city": "",
    "plz": "",
    "lat": 46.5205903,
    "lng": 6.638231,
    "phone": "",
    "hours": "Mo–Fr 07:30-19:00; Sa 07:30-18:00; PH,Su off",
    "id": 363
  },
  {
    "shop": "Coop",
    "name": "Coop",
    "address": "",
    "city": "",
    "plz": "",
    "lat": 47.6566367,
    "lng": 9.1329532,
    "phone": "",
    "hours": "",
    "id": 364
  },
  {
    "shop": "Coop",
    "name": "Coop Luzern Schönbühl",
    "address": "Langensandstrasse 23",
    "city": "Luzern",
    "plz": "6005",
    "lat": 47.0372902,
    "lng": 8.3287849,
    "phone": "",
    "hours": "",
    "id": 365
  },
  {
    "shop": "Coop",
    "name": "Coop",
    "address": "",
    "city": "",
    "plz": "",
    "lat": 46.2528558,
    "lng": 9.0227383,
    "phone": "",
    "hours": "",
    "id": 366
  },
  {
    "shop": "Coop",
    "name": "Coop Bellinzona",
    "address": "",
    "city": "Bellinzona",
    "plz": "",
    "lat": 46.1946672,
    "lng": 9.0248877,
    "phone": "",
    "hours": "Mo–Fr 07:30-19:00; Sa 07:30-18:30",
    "id": 367
  },
  {
    "shop": "Coop",
    "name": "Coop Buchs AG",
    "address": "",
    "city": "",
    "plz": "",
    "lat": 47.3896823,
    "lng": 8.0704133,
    "phone": "",
    "hours": "Mo–Fr 07:30-20:00; Sa 07:30-18:00",
    "id": 368
  },
  {
    "shop": "Coop",
    "name": "Coop",
    "address": "",
    "city": "",
    "plz": "",
    "lat": 47.4951343,
    "lng": 7.0148473,
    "phone": "",
    "hours": "",
    "id": 369
  },
  {
    "shop": "Coop",
    "name": "Coop",
    "address": "",
    "city": "",
    "plz": "",
    "lat": 46.9287343,
    "lng": 6.812411,
    "phone": "",
    "hours": "",
    "id": 370
  },
  {
    "shop": "Coop",
    "name": "Coop Schlieren Lilienzentrum",
    "address": "Zürcherstrasse 6",
    "city": "Schlieren",
    "plz": "8952",
    "lat": 47.397086,
    "lng": 8.4489673,
    "phone": "",
    "hours": "Mo–Fr 08:00-20:00; Sa 08:00-18:00",
    "id": 371
  },
  {
    "shop": "Coop",
    "name": "Coop",
    "address": "",
    "city": "",
    "plz": "",
    "lat": 46.9592917,
    "lng": 7.5002934,
    "phone": "",
    "hours": "Mo–Fr 07:00-20:00; Sa 07:00-17:00; Su,PH closed",
    "id": 372
  },
  {
    "shop": "Coop",
    "name": "Coop Europe",
    "address": "Clarastrasse 41",
    "city": "",
    "plz": "4058",
    "lat": 47.5628797,
    "lng": 7.5970323,
    "phone": "+41 61 686 75 00",
    "hours": "Mo–Fr 07:30-20:00; Sa 07:30-18:00, Aug 1 Closed",
    "id": 373
  },
  {
    "shop": "Coop",
    "name": "Coop Coop Helvetiaplatz",
    "address": "Strassburgerallee 128",
    "city": "",
    "plz": "",
    "lat": 47.5601511,
    "lng": 7.5674031,
    "phone": "",
    "hours": "Mo–Fr 07:30-20:00; Sa 07:30-18:00",
    "id": 374
  },
  {
    "shop": "Coop",
    "name": "Coop Basel Südpark",
    "address": "Güterstrasse 125",
    "city": "Basel",
    "plz": "4053",
    "lat": 47.5452203,
    "lng": 7.5887102,
    "phone": "",
    "hours": "Mo–Sa 07:00-22:00",
    "id": 375
  },
  {
    "shop": "Coop",
    "name": "Coop",
    "address": "",
    "city": "",
    "plz": "",
    "lat": 47.0265743,
    "lng": 7.4438977,
    "phone": "",
    "hours": "Mo-Su 06:00-22:00",
    "id": 376
  },
  {
    "shop": "Coop",
    "name": "Coop Niederrohrdorf",
    "address": "",
    "city": "",
    "plz": "",
    "lat": 47.4233658,
    "lng": 8.3051049,
    "phone": "",
    "hours": "Mo–Fr 08:00-20:00; Sa 07:30-18:00; PH closed",
    "id": 377
  },
  {
    "shop": "Coop",
    "name": "Coop",
    "address": "",
    "city": "",
    "plz": "",
    "lat": 47.4620669,
    "lng": 8.3354496,
    "phone": "",
    "hours": "Mo-Su 06:00-23:00",
    "id": 378
  },
  {
    "shop": "Coop",
    "name": "Coop Rothenburg",
    "address": "Grabenweg 3",
    "city": "Rothenburg",
    "plz": "6023",
    "lat": 47.0929813,
    "lng": 8.2709882,
    "phone": "",
    "hours": "",
    "id": 379
  },
  {
    "shop": "Coop",
    "name": "Coop Wollerau",
    "address": "Bahnhofstrasse 20",
    "city": "Wollerau",
    "plz": "8832",
    "lat": 47.1951635,
    "lng": 8.7231329,
    "phone": "",
    "hours": "Mo–Sa 07:00-20:00",
    "id": 380
  },
  {
    "shop": "Coop",
    "name": "Coop Solothurn Westring",
    "address": "Schanzenstrasse 6",
    "city": "",
    "plz": "",
    "lat": 47.2074429,
    "lng": 7.5342258,
    "phone": "+41 32 624 50 70",
    "hours": "Mo-We,Fr 08:00-18:30; Th 08:00-21:00; Sa 07:30-18:00; Su off; PH off",
    "id": 381
  },
  {
    "shop": "Coop",
    "name": "Coop Zürich Löwenstrasse",
    "address": "Löwenstrasse 7",
    "city": "Zürich",
    "plz": "8001",
    "lat": 47.3733547,
    "lng": 8.5344801,
    "phone": "",
    "hours": "Mo–Sa 06:00-23:00",
    "id": 382
  },
  {
    "shop": "Coop",
    "name": "Coop Rapperswil",
    "address": "",
    "city": "Rapperswil",
    "plz": "8640",
    "lat": 47.2249934,
    "lng": 8.8173585,
    "phone": "+41 55 536 00 66",
    "hours": "Mo-Su 05:00-23:00",
    "id": 383
  },
  {
    "shop": "Coop",
    "name": "Coop",
    "address": "",
    "city": "",
    "plz": "",
    "lat": 47.0681296,
    "lng": 9.0585848,
    "phone": "",
    "hours": "",
    "id": 384
  },
  {
    "shop": "Coop",
    "name": "Coop Zürich Römerhof",
    "address": "Klosbachstrasse 104",
    "city": "Zürich",
    "plz": "8032",
    "lat": 47.3678218,
    "lng": 8.5608053,
    "phone": "",
    "hours": "Mo–Sa 07:00-21:00",
    "id": 385
  },
  {
    "shop": "Coop",
    "name": "Coop Sion Rue du Scex 2",
    "address": "Rue du Scex 2",
    "city": "Sion",
    "plz": "1950",
    "lat": 46.2315329,
    "lng": 7.3624374,
    "phone": "",
    "hours": "Mo-Th 08:00-18:30; Fr 08:00-20:00; Sa 08:00-17:00",
    "id": 386
  },
  {
    "shop": "Coop",
    "name": "Coop",
    "address": "",
    "city": "",
    "plz": "",
    "lat": 46.7271946,
    "lng": 7.1367015,
    "phone": "",
    "hours": "",
    "id": 387
  },
  {
    "shop": "Coop",
    "name": "Coop Fontainemelon Avenue Robert 12",
    "address": "Avenue Robert 12",
    "city": "Fontainemelon",
    "plz": "2052",
    "lat": 47.0575324,
    "lng": 6.8933511,
    "phone": "",
    "hours": "",
    "id": 388
  },
  {
    "shop": "Coop",
    "name": "Coop",
    "address": "",
    "city": "",
    "plz": "",
    "lat": 47.1396199,
    "lng": 7.2467754,
    "phone": "",
    "hours": "Mo-We,Fr 08:30-18:30; Th 08:30-20:00; Sa 08:30-17:00",
    "id": 389
  },
  {
    "shop": "Coop",
    "name": "Coop",
    "address": "",
    "city": "",
    "plz": "",
    "lat": 46.8574702,
    "lng": 9.5204351,
    "phone": "",
    "hours": "Mo–Fr 07:30-20:00; Sa 07:30-18:00; Su off",
    "id": 390
  },
  {
    "shop": "Coop",
    "name": "Coop",
    "address": "",
    "city": "",
    "plz": "",
    "lat": 46.6683593,
    "lng": 6.8004597,
    "phone": "",
    "hours": "Mo–Sa 07:30-19:30",
    "id": 391
  },
  {
    "shop": "Coop",
    "name": "Coop",
    "address": "Via Maestri Comacini",
    "city": "",
    "plz": "",
    "lat": 45.8344887,
    "lng": 9.0354938,
    "phone": "",
    "hours": "",
    "id": 392
  },
  {
    "shop": "Coop",
    "name": "Coop Antrona Schieranco Via Colonasca 2",
    "address": "Via Colonasca 2",
    "city": "Antrona Schieranco",
    "plz": "28841",
    "lat": 46.0603581,
    "lng": 8.1144149,
    "phone": "",
    "hours": "Mo-Tu 07:30-12:30, 16:30-19:00; We 07:30-12:30; Th-Fr 07:30-12:30, 16:30-19:00",
    "id": 393
  },
  {
    "shop": "Coop",
    "name": "Coop",
    "address": "",
    "city": "",
    "plz": "",
    "lat": 47.0874648,
    "lng": 7.5840891,
    "phone": "",
    "hours": "",
    "id": 394
  },
  {
    "shop": "Coop",
    "name": "Coop Schüpfheim Hindervormüli 9",
    "address": "Hindervormüli 9",
    "city": "Schüpfheim",
    "plz": "6170",
    "lat": 46.9469873,
    "lng": 8.0094237,
    "phone": "+41 41 485 70 20",
    "hours": "Mo–Fr 07:30-19:00; Sa 07:30-17:00; Su, PH off",
    "id": 395
  },
  {
    "shop": "Coop",
    "name": "Coop Luino",
    "address": "Via Luigi Ghiringhelli 1",
    "city": "Luino",
    "plz": "21016",
    "lat": 45.9976395,
    "lng": 8.7471127,
    "phone": "+39 0332 533229",
    "hours": "Mo-Su 08:00-20:00; PH closed",
    "id": 396
  },
  {
    "shop": "Coop",
    "name": "Coop",
    "address": "",
    "city": "",
    "plz": "",
    "lat": 46.4765437,
    "lng": 6.4019166,
    "phone": "",
    "hours": "Sa 07:30-19:00; Mo-Th 08:30-19:30; Fr 08:30-20:30; Su off",
    "id": 397
  },
  {
    "shop": "Coop",
    "name": "Coop",
    "address": "",
    "city": "",
    "plz": "",
    "lat": 46.8094474,
    "lng": 7.1441586,
    "phone": "",
    "hours": "",
    "id": 398
  },
  {
    "shop": "Coop",
    "name": "Coop",
    "address": "",
    "city": "",
    "plz": "",
    "lat": 46.4882179,
    "lng": 6.728688,
    "phone": "",
    "hours": "Mo–Fr 08:00-19:00; Sa 08:00-18:00",
    "id": 399
  },
  {
    "shop": "Coop",
    "name": "Coop",
    "address": "",
    "city": "",
    "plz": "",
    "lat": 46.9721037,
    "lng": 7.1938083,
    "phone": "",
    "hours": "",
    "id": 400
  },
  {
    "shop": "Coop",
    "name": "Coop Pratteln Hardstrasse",
    "address": "Hardstrasse 49",
    "city": "Pratteln",
    "plz": "4133",
    "lat": 47.5251657,
    "lng": 7.6837758,
    "phone": "",
    "hours": "Mo–Fr 05:00-23:00; PH,Sa-Su 06:00-23:00",
    "id": 401
  },
  {
    "shop": "Coop",
    "name": "Coop",
    "address": "",
    "city": "",
    "plz": "",
    "lat": 47.3432678,
    "lng": 7.8711234,
    "phone": "",
    "hours": "",
    "id": 402
  },
  {
    "shop": "Coop",
    "name": "Coop Wangen b. Olten Dorfstrasse 20",
    "address": "Dorfstrasse 20",
    "city": "Wangen b. Olten",
    "plz": "4612",
    "lat": 47.341976,
    "lng": 7.8645608,
    "phone": "",
    "hours": "",
    "id": 403
  },
  {
    "shop": "Coop",
    "name": "Coop",
    "address": "",
    "city": "",
    "plz": "",
    "lat": 46.743488,
    "lng": 7.5950809,
    "phone": "",
    "hours": "Mo–Fr 07:00-19:00; Sa 07:00-17:00",
    "id": 404
  },
  {
    "shop": "Coop",
    "name": "Coop Urnäsch Schwägalpstrasse 1",
    "address": "Schwägalpstrasse 1",
    "city": "Urnäsch",
    "plz": "9107",
    "lat": 47.3166352,
    "lng": 9.2819007,
    "phone": "",
    "hours": "Mo–Fr 07:30-19:00; Sa 07:30-17:00",
    "id": 405
  },
  {
    "shop": "Coop",
    "name": "Coop",
    "address": "",
    "city": "",
    "plz": "",
    "lat": 46.3579263,
    "lng": 8.9718888,
    "phone": "",
    "hours": "",
    "id": 406
  },
  {
    "shop": "Coop",
    "name": "Coop Schaffhausen Herblingen",
    "address": "",
    "city": "",
    "plz": "",
    "lat": 47.7214999,
    "lng": 8.666126,
    "phone": "",
    "hours": "Mo–Fr 09:00-20:00; Sa 08:00-18:00; PH,Su off",
    "id": 407
  },
  {
    "shop": "Coop",
    "name": "Coop",
    "address": "",
    "city": "",
    "plz": "",
    "lat": 46.111276,
    "lng": 7.075388,
    "phone": "+41 27 720 47 60",
    "hours": "Mo-Th 08:30-18:30; Fr 08:30-20:00; Sa 08:00-17:00",
    "id": 408
  },